"SERVICE REQUEST TYPE","SERVICE REQUEST NUMBER","DATE SERVICE REQUEST WAS RECEIVED","LOCATION OF BUILDING ON THE LOT (IF GARAGE, CHANGE TYPE CODE TO BGD).","IS THE BUILDING DANGEROUS OR HAZARDOUS?","IS BUILDING OPEN OR BOARDED?","IF THE BUILDING IS OPEN, WHERE IS THE ENTRY POINT?","IS THE BUILDING CURRENTLY VACANT OR OCCUPIED?","IS THE BUILDING VACANT DUE TO FIRE?","ANY PEOPLE USING PROPERTY? (HOMELESS, CHILDEN, GANGS)","ADDRESS STREET NUMBER","ADDRESS STREET DIRECTION","ADDRESS STREET NAME","ADDRESS STREET SUFFIX","ZIP CODE","X COORDINATE","Y COORDINATE","Ward","Police District","Community Area","LATITUDE","LONGITUDE","Location"
"Vacant/Abandoned Building","18-03384005","12/17/2018","Front",,"Open",,"Vacant","false","false","8455","S","BURNHAM","AVE","60617","1196293.48240573","1849447.120995","7","4","46","41.74176391586","-87.55636087437","(41.74176391586, -87.556360874371)"
"Vacant/Abandoned Building","18-03380438","12/17/2018","Front",,"Open","FRONT DOOR","Vacant","false","false","8201","S","ADA","ST","60620","1168755.21772484","1850381.02920723","21","6","71","41.74496468711","-87.65723277941","(41.744964687112, -87.65723277941)"
"Vacant/Abandoned Building","18-03379703","12/17/2018","Front",,"Open","BAC","Vacant","false","true","7840","S","BENNETT","AVE","60649","1190229.94157253","1853363.51917163","8","4","43","41.75265895197","-87.57845120487","(41.752658951975, -87.57845120487)"
"Vacant/Abandoned Building","18-03382499","12/17/2018","Front",,"Open","OPEN LOT","Occupied","false","true","731","N","PULASKI","RD","60624","1149592.31191397","1904587.94002897","37","11","23","41.8941077949","-87.72604546458","(41.894107794896, -87.726045464583)"
"Vacant/Abandoned Building","18-03374995","12/16/2018","Rear",,"Boarded",,"Vacant","false","false","8530","S","CARPENTER","ST","60620","1170805.10477382","1848250.9429985","21","6","71","41.73907499704","-87.64978368621","(41.739074997042, -87.649783686208)"
"Vacant/Abandoned Building","18-03371860","12/16/2018","Front",,"Boarded",,"Vacant","false","false","6058","S","MOZART","ST","60629","1158417.21898829","1864343.72289956","16","8","66","41.78349707611","-87.69473315833","(41.783497076114, -87.694733158334)"
"Vacant/Abandoned Building","18-03373667","12/16/2018","Rear",,"Open","NORTHSIDE OF HOUSE","Vacant","false","false","6653","S","WABASH","AVE","60637","1177752.52457146","1860898.8064104","20","3","69","41.77362793737","-87.62394764491","(41.773627937367, -87.623947644911)"
"Vacant/Abandoned Building","18-03363941","12/15/2018","Front",,"Open","FRONT AND REAR","Vacant","false","false","1131","S","MOZART","ST","60612","1157527.89999065","1895040.02001058","28","11","29","41.86774955906","-87.69716037609","(41.867749559059, -87.697160376093)"
"Vacant/Abandoned Building","18-03366142","12/15/2018","Front",,"Open","DOORS/WINDOWS","Vacant","true","false","13143","S","CARONDOLET","AVE","60633","1198433.73239265","1818412.9700882","10","4","55","41.65654996473","-87.54955401873","(41.656549964729, -87.549554018732)"
"Vacant/Abandoned Building","18-03364763","12/15/2018","Front",,"Open","FRONT","Vacant","false","true","7222","S","EUCLID","AVE","60649","1190294.44408873","1857380.6101283","5","3","43","41.76368063945","-87.57808559634","(41.76368063945, -87.57808559634)"
"Vacant/Abandoned Building","18-03359220","12/14/2018","Front",,"Boarded",,"Vacant","false","false","1041","W","103RD","PL","60643","1171203.67331807","1836184.36006943","34","22","73","41.70595384802","-87.64867500964","(41.705953848025, -87.648675009641)"
"Vacant/Abandoned Building","18-03359445","12/14/2018","Front",,"Open",,"Vacant","false","true","313","W","111TH","ST","60628","1176113.18920959","1831318.67067932","34","5","49","41.69249316777","-87.63084208645","(41.692493167773, -87.630842086452)"
"Vacant/Abandoned Building","18-03359362","12/14/2018","Front",,"Boarded",,"Vacant","false","false","11137","S","ASHLAND","AVE","60643","1167487.0451952","1830768.03249619","34","22","75","41.69117083675","-87.66243956878","(41.691170836753, -87.662439568779)"
"Vacant/Abandoned Building","18-03359572","12/14/2018","Front",,"Open",,"Vacant","true","true","12312","S","LOWE","AVE","60628","1174168.41002497","1823234.89000804","34","5","53","41.67035329477","-87.63820101617","(41.670353294772, -87.638201016169)"
"Vacant/Abandoned Building","18-03359550","12/14/2018","Front",,"Boarded",,"Vacant","false","true","11011","S","HALSTED","ST","60628","1172943.85292896","1831833.09041267","34","22","49","41.69397515887","-87.64243042404","(41.693975158873, -87.642430424044)"
"Vacant/Abandoned Building","18-03361044","12/14/2018","Front",,"Boarded","REAR","Vacant","false","true","1344","S","SPRINGFIELD","AVE","60623","1150594.28011069","1893464.273621","24","10","29","41.86356370893","-87.72265621342","(41.863563708931, -87.722656213422)"
"Vacant/Abandoned Building","18-03359302","12/14/2018","Front",,"Boarded",,"Vacant","false","false","1221","W","107TH","PL","60643","1170059.72622899","1833488.33382526","34","22","75","41.69858040993","-87.65294206419","(41.698580409934, -87.652942064189)"
"Vacant/Abandoned Building","18-03361069","12/14/2018","Rear",,"Boarded","REAR","Vacant","false","true","1346","S","SPRINGFIELD","AVE","60623","1150594.68011069","1893450.773621","24","10","29","41.86352665554","-87.72265509755","(41.863526655536, -87.722655097554)"
"Vacant/Abandoned Building","18-03361423","12/14/2018","Front",,"Open","GARAGE","Vacant","false","false","500","W","103RD","PL","60628","1174791.25303002","1836263.66818945","34","22","49","41.7060924585","-87.63553521715","(41.706092458501, -87.635535217149)"
"Vacant/Abandoned Building","18-03359335","12/14/2018","Front",,"Boarded",,"Vacant","false","false","1001","W","102ND","ST","60643","1171439.32790894","1837182.86602592","34","22","73","41.70868875535","-87.64778294982","(41.708688755349, -87.647782949816)"
"Vacant/Abandoned Building","18-03359892","12/14/2018","Garage",,"Boarded",,"Vacant","false","false","2651","W","AUGUSTA","BLVD","60622","1158539.0978194","1906551.04428198","26","12","24","41.89931625206","-87.69313283112","(41.899316252056, -87.693132831124)"
"Vacant/Abandoned Building","18-03362259","12/14/2018","Front",,"Open",,"Vacant","false","true","6057","S","MOZART","ST","60629","1158417.11898829","1864350.42289956","16","8","66","41.7835154639","-87.69473334253","(41.783515463899, -87.694733342533)"
"Vacant/Abandoned Building","18-03360079","12/14/2018","Rear",,"Open","REAR","Vacant","false","true","9032","S","THROOP","ST","60620","1169245.40939052","1844875.09833183","21","22","73","41.72984504891","-87.65559551729","(41.729845048915, -87.655595517287)"
"Vacant/Abandoned Building","18-03359458","12/14/2018","Front",,"Open","ENTERING THROUGH THE FRONT AND THE GARAGE.","Vacant","false","true","5545","S","HONORE","ST","60636","1164966.15990611","1867830.87323263","15","7","67","41.7929302772","-87.67062383489","(41.792930277198, -87.670623834892)"
"Vacant/Abandoned Building","18-03359363","12/14/2018","Front",,"Open",,"Vacant","false","true","518","N","TROY","ST","60612","1155283.80007764","1903354.41499462","27","12","23","41.89061043973","-87.70517548483","(41.890610439731, -87.705175484833)"
"Vacant/Abandoned Building","18-03358253","12/14/2018","Front",,"Open","DOORS, FROMT AND REAR","Occupied","false","true","620","E","89TH","PL","60619","1181938.63938974","1845771.19942051","6","6","44","41.73202038733","-87.60906922201","(41.732020387326, -87.609069222012)"
"Vacant/Abandoned Building","18-03359591","12/14/2018","Front",,"Boarded",,"Vacant","false","true","11841","S","LAFAYETTE","AVE","60628","1178042.35540593","1826446.19659477","34","5","53","41.67907898565","-87.62392601943","(41.679078985654, -87.623926019425)"
"Vacant/Abandoned Building","18-03358497","12/14/2018","Front",,"Open",,"Vacant","false","false","3533","N","OZARK","AVE","60634","1123790.52460024","1922547.40150106","38","16","17","41.94385305803","-87.82041466734","(41.943853058031, -87.820414667337)"
"Vacant/Abandoned Building","18-03347062","12/13/2018","Front",,"Open","FRONT DOOR","Vacant","false","true","520","W","80TH","ST","60620","1174138.19841638","1851859.42299151","17","6","44","41.74890383195","-87.63746496903","(41.748903831945, -87.637464969029)"
"Vacant/Abandoned Building","18-03350823","12/13/2018","Front",,"Boarded","NONE","Vacant","false","false","126","N","KARLOV","AVE","60624","1149044.47928215","1900303.35098624","28","11","26","41.88236104031","-87.72816847417","(41.882361040306, -87.728168474173)"
"Vacant/Abandoned Building","18-03346803","12/13/2018","Rear",,"Open",,"Vacant","true","true","6619","S","DREXEL","AVE","60637","1183363.2597724","1861313.2638171","5","3","42","41.77463640739","-87.60336722279","(41.774636407388, -87.603367222789)"
"Vacant/Abandoned Building","18-03353930","12/13/2018","Rear",,"Open","FRONT","Vacant","false","true","2023","N","DRAKE","AVE","60647","1152489.38197035","1913326.07520016","26","14","22","41.91802929261","-87.71517410233","(41.918029292607, -87.715174102331)"
"Vacant/Abandoned Building","18-03352788","12/13/2018","Front",,"Open",,"Vacant","false","false","3019","E","79TH","PL","60617","1197681.15416792","1852835.05008824","7","4","46","41.75102614948","-87.5511637686","(41.751026149483, -87.551163768599)"
"Vacant/Abandoned Building","18-03354063","12/13/2018","Front",,"Open","DOORS AND WINDOWS ARE OPEN","Occupied","false","true","2948","N","MEADE","AVE","60634","1135220.76632624","1918962.19537624","30","25","19","41.93381948918","-87.77848686641","(41.933819489185, -87.778486866408)"
"Vacant/Abandoned Building","18-03354258","12/13/2018","Front",,"Boarded",,"Vacant","false","false","4600","S","LA CROSSE","AVE","60638","1144798.7538191","1873696.56893299","22","8","56","41.80942948854","-87.74442895073","(41.809429488538, -87.74442895073)"
"Vacant/Abandoned Building","18-03353495","12/13/2018","Front",,"Open","WINDOWS 2ND FLOOR","Vacant","false","true","333","S","STATE","ST","60604","1176425.81530555","1898835.89000324","4","1","32","41.87776039668","-87.62766878243","(41.87776039668, -87.627668782428)"
"Vacant/Abandoned Building","18-03353470","12/13/2018","Front",,"Open","DOORS AND WINDOWS","Vacant","false","true","2045","W","WASHINGTON","BLVD","60612","1162758.53216616","1900683.87769246","27","12","28","41.88312882669","-87.67779956802","(41.883128826693, -87.677799568016)"
"Vacant/Abandoned Building","18-03352344","12/13/2018","Front",,"Boarded",,"Vacant",,"false","9312","S","KENWOOD","AVE",,"1186736.38002676","1843505.51387212","8","4","47","41.72569097262","-87.5915648569","(41.72569097262, -87.5915648569)"
"Vacant/Abandoned Building","18-03346905","12/13/2018",,,,,,,,"3035","W","40TH","ST","60632","1156769.75623048","1877948.58877546","12","9","58","41.82086408865","-87.70040607632","(41.820864088648, -87.700406076323)"
"Vacant/Abandoned Building","18-03346875","12/13/2018","Front",,"Open","FRONT AND REAR","Vacant","false","true","7200","S","PEORIA","ST","60621","1171550.98778148","1857101.50699916","6","7","68","41.76334580795","-87.64679216513","(41.763345807946, -87.646792165129)"
"Vacant/Abandoned Building","18-03355620","12/13/2018","Front",,"Open","ALL OVER","Vacant","false","false","8446","S","ESCANABA","AVE","60617","1196953.10003234","1849525.09009641","10","4","46","41.74196150094","-87.55394152277","(41.741961500944, -87.553941522771)"
"Vacant/Abandoned Building","18-03352756","12/13/2018","Front",,"Open",,"Vacant","false","false","1732","W","19TH","ST","60608","1165069.58899167","1890786.23190288","25","12","31","41.85592007645","-87.66959428509","(41.855920076447, -87.66959428509)"
"Vacant/Abandoned Building","18-03341192","12/12/2018",,,,,,,,"255","E","135TH","PL","60827","1180549.4600243","1815480.37999166","9","5","54","41.64893009198","-87.6150835693","(41.648930091978, -87.6150835693)"
"Vacant/Abandoned Building","18-03342446","12/12/2018","Rear",,"Open",,"Vacant","false","false","1822","N","WOLCOTT","AVE","60622","1163400.11666784","1912157.71602001","32","14","22","41.91460043255","-87.6751203885","(41.914600432552, -87.675120388496)"
"Vacant/Abandoned Building","18-03340682","12/12/2018","Front",,"Open",,"Vacant","false","true","3329","S","MORGAN","ST","60608","1170188.04691575","1882782.96986921","11","9","60","41.83384831278","-87.65104047754","(41.833848312776, -87.651040477539)"
"Vacant/Abandoned Building","18-03340611","12/12/2018","Rear",,"Open",,"Vacant","false","true","1644","N","KEELER","AVE","60639","1148136.85039178","1910598.78261318","26","25","23","41.9106303126","-87.73123601896","(41.910630312598, -87.731236018959)"
"Vacant/Abandoned Building","18-03341382","12/12/2018",,,,,,,,"7337","S","PEORIA","ST","60621","1171576.1802302","1856190.27388582","17","7","68","41.76084471863","-87.6467264883","(41.760844718632, -87.646726488304)"
"Vacant/Abandoned Building","18-03338123","12/12/2018",,,,,,,,"1348","S","KEELER","AVE","60623","1148599.9610772","1893386.92463292","24","10","29","41.86339014864","-87.72997928695","(41.863390148639, -87.729979286948)"
"Vacant/Abandoned Building","18-03340390","12/12/2018","Rear",,"Boarded",,"Vacant","false","false","5404","W","WASHINGTON","BLVD","60644","1140282.78140074","1900222.73568423","28","15","25","41.88230485671","-87.76034391051","(41.882304856706, -87.760343910511)"
"Vacant/Abandoned Building","18-03343007","12/12/2018",,,,,,,,"1611","N","RICHMOND","ST","60647","1156573.15776955","1910584.56937538","1","14","24","41.91042462221","-87.70024437571","(41.910424622206, -87.700244375709)"
"Vacant/Abandoned Building","18-03341155","12/12/2018",,,,,,,,"1657","S","CENTRAL PARK","AVE","60623","1152646.17998163","1891421.23011668","24","10","29","41.85791706349","-87.71517777201","(41.857917063491, -87.715177772014)"
"Vacant/Abandoned Building","18-03344283","12/12/2018","Front",,"Open","REAR ENTRY","Vacant","false","true","1240","W","97TH","ST","60643","1169757.00467048","1840605.24597721","21","22","73","41.71811687601","-87.65384485901","(41.71811687601, -87.653844859007)"
"Vacant/Abandoned Building","18-03341033","12/12/2018","Rear",,"Open",,"Vacant","false","false","5435","S","JUSTINE","ST","60609","1166928.98147224","1868682.86187692","16","9","61","41.79522648926","-87.6634020404","(41.795226489259, -87.663402040403)"
"Vacant/Abandoned Building","18-03341066","12/12/2018",,,,,,,,"1023","W","IRVING PARK","RD","60613","1168636.53009842","1926729.11513118","46","19","6","41.9544731549","-87.65545935687","(41.954473154904, -87.655459356873)"
"Vacant/Abandoned Building","18-03341010","12/12/2018","Garage",,"Open","FRONT","Vacant","false","false","105","W","113TH","PL","60628","1177505.72227733","1829696.58798406","34","5","49","41.6880106565","-87.62579259322","(41.688010656495, -87.625792593216)"
"Vacant/Abandoned Building","18-03341237","12/12/2018","Front",,"Open",,"Vacant","false","false","7339","S","PEORIA","ST","60621","1171576.4802302","1856176.87388582","17","7","68","41.76080794078","-87.64672578078","(41.760807940779, -87.646725780785)"
"Vacant/Abandoned Building","18-03342082","12/12/2018","Front",,"Open",,"Vacant","false","false","6556","S","RHODES","AVE","60637","1181028.39369864","1861660.17010717","20","3","42","41.77564241746","-87.61191571416","(41.775642417458, -87.611915714161)"
"Vacant/Abandoned Building","18-03340203","12/12/2018","Front",,"Open","DOOR","Vacant","false","false","3249","N","NATCHEZ","AVE","60634","1132477.3803066","1920899.46542872","36","16","17","41.93918385717","-87.78852364681","(41.939183857174, -87.788523646808)"
"Vacant/Abandoned Building","18-03342983","12/12/2018",,,,,,,,"1609","N","RICHMOND","ST","60647","1156573.65776955","1910568.76937538","1","14","24","41.91038125556","-87.70024296731","(41.91038125556, -87.700242967313)"
"Vacant/Abandoned Building","18-03340326","12/12/2018","Front",,"Boarded",,"Vacant","false","false","822","N","LOCKWOOD","AVE","60651","1140872.54652052","1904968.35381705","37","15","25","41.89531659117","-87.7580614318","(41.895316591166, -87.758061431796)"
"Vacant/Abandoned Building","18-03343200","12/12/2018","Front",,"Open","FRONT","Vacant","false","false","2101","N","KENMORE","AVE","60614","1168957.86239518","1914140.96120129","43","18","7","41.91992370797","-87.65464445431","(41.919923707974, -87.654644454309)"
"Vacant/Abandoned Building","18-03344094","12/12/2018","Front",,"Open",,"Vacant","false","true","11732","S","LA SALLE","ST","60628","1177364.27671768","1827152.40019211","34","5","53","41.68103220981","-87.62638684034","(41.681032209812, -87.626386840343)"
"Vacant/Abandoned Building","18-03340579","12/12/2018","Front",,"Open",,"Vacant","false","false","116","W","113TH","PL","60628","1177442.42227733","1829695.08798406","34","5","49","41.68800796674","-87.62602437293","(41.688007966738, -87.626024372928)"
"Vacant/Abandoned Building","18-03338053","12/12/2018",,,,,,,,"2400","S","DRAKE","AVE","60623","1153081.55718592","1887826.71756684","22","10","30","41.84804468435","-87.71367487506","(41.848044684349, -87.713674875059)"
"Vacant/Abandoned Building","18-03341165","12/12/2018",,,,,,,,"1920","W","22ND","PL","60608","1163919.67162573","1889092.35999629","25","10","31","41.85129624356","-87.67386279512","(41.851296243561, -87.673862795124)"
"Vacant/Abandoned Building","18-03344030","12/12/2018","Front",,"Open",,"Vacant","false","true","9704","S","OGLESBY","AVE","60617","1193644.33161237","1840900.58478873","10","4","51","41.71837666639","-87.5663461145","(41.71837666639, -87.566346114495)"
"Vacant/Abandoned Building","18-03344216","12/12/2018","Front",,"Open","FRONT DOOR","Vacant","false","true","5239","W","RACE","AVE","60644","1141341.82526916","1903050.75979482","37","15","25","41.8900458351","-87.75638522083","(41.890045835101, -87.75638522083)"
"Vacant/Abandoned Building","18-03330589","12/11/2018","Front",,"Open",,"Vacant","false","false","4245","W","WILCOX","ST","60624","1148112.12052565","1898998.1815713","28","11","26","41.87879749709","-87.73162573782","(41.878797497091, -87.73162573782)"
"Vacant/Abandoned Building","18-03330614","12/11/2018","Front",,"Open",,"Vacant","false","false","4211","W","WILCOX","ST","60624","1148340.92052565","1899003.2815713","28","11","26","41.87880708725","-87.73078548933","(41.878807087249, -87.730785489335)"
"Vacant/Abandoned Building","18-03330694","12/11/2018","Front",,"Open",,"Vacant","false","false","4129","W","ADAMS","ST","60624","1148898.5405974","1898690.92592853","28","11","26","41.87793918692","-87.72874607717","(41.877939186924, -87.72874607717)"
"Vacant/Abandoned Building","18-03330480","12/11/2018","Front",,"Open",,"Vacant","false","false","5020","W","FULTON","ST","60644","1142857.41411046","1901473.94338956","28","15","25","41.88569076292","-87.75085853096","(41.885690762918, -87.750858530959)"
"Vacant/Abandoned Building","18-03335620","12/11/2018",,,,,,,,"5206","S","HERMITAGE","AVE","60609","1165561.06053277","1870176.3363247","16","9","61","41.79935390649","-87.66837587063","(41.799353906495, -87.668375870631)"
"Vacant/Abandoned Building","18-03332485","12/11/2018","Front",,"Open",,"Vacant","false","false","1330","W","CARMEN","AVE","60640","1166509.68701548","1934036.05683054","47","20","3","41.9745695724","-87.66306778169","(41.974569572403, -87.663067781695)"
"Vacant/Abandoned Building","18-03334213","12/11/2018","Rear",,"Boarded","REAR","Vacant","false","false","1342","S","HEATH","AVE","60608","1161026.88987642","1893815.92430431","28","12","28","41.86431864891","-87.68434893521","(41.864318648905, -87.684348935215)"
"Vacant/Abandoned Building","18-03335450","12/11/2018","Rear",,"Open",,"Vacant","true","true","6152","S","ARTESIAN","AVE","60629","1161093.91946913","1863794.12740174","16","8","66","41.78193393978","-87.68493458507","(41.781933939776, -87.684934585065)"
"Vacant/Abandoned Building","18-03332791","12/11/2018","Front",,"Boarded",,"Vacant","false","false","2455","W","79TH","ST","60652","1161300.99827339","1852211.85307749","18","8","70","41.75014622252","-87.68449569716","(41.750146222516, -87.684495697159)"
"Vacant/Abandoned Building","18-03331043","12/11/2018","Front",,"Open",,"Vacant","false","false","4050","W","MONROE","ST","60624","1149740.49601598","1899361.02220854","28","11","26","41.87976168926","-87.72563717402","(41.879761689259, -87.725637174016)"
"Vacant/Abandoned Building","18-03331935","12/11/2018","Front",,"Open",,"Vacant","false","false","4138","W","JACKSON","BLVD","60624","1148848.33006794","1898364.81947818","28","11","26","41.87704528405","-87.72893887163","(41.87704528405, -87.728938871627)"
"Vacant/Abandoned Building","18-03334552","12/11/2018","Front",,"Open",,"Vacant","false","false","1544","S","KEELER","AVE","60623","1148638.08801695","1892084.2216233","24","10","29","41.85981463705","-87.72987293778","(41.85981463705, -87.729872937782)"
"Vacant/Abandoned Building","18-03334688","12/11/2018","Rear",,"Open","DOORS AND WINDOWS","Vacant","false","false","1820","N","WOLCOTT","AVE","60622","1163400.51666784","1912144.61602001","32","14","22","41.91456447684","-87.67511928831","(41.914564476839, -87.675119288313)"
"Vacant/Abandoned Building","18-03334134","12/11/2018","Front",,"Open","REAR DOOR","Vacant","false","false","2039","W","69TH","PL","60636","1163963.33231873","1858564.40010064","17","7","67","41.76752300755","-87.67456141259","(41.767523007546, -87.674561412594)"
"Vacant/Abandoned Building","18-03331069","12/11/2018","Front",,"Open",,"Vacant","false","false","4036","W","MONROE","ST","60624","1149497.79601598","1899355.22220854","28","11","26","41.87975048568","-87.7265284928","(41.879750485677, -87.726528492802)"
"Vacant/Abandoned Building","18-03332099","12/11/2018","Rear",,"Boarded","BACKYARD","Vacant","false","false","1154","W","88TH","ST","60620","1170085.33828754","1846440.08781274","21","22","71","41.73412141391","-87.65247326368","(41.734121413914, -87.652473263681)"
"Vacant/Abandoned Building","18-03331077","12/11/2018","Front",,"Open",,"Vacant","false","false","4248","W","ADAMS","ST","60624","1148102.60607873","1898672.44009933","28","11","26","41.87790380805","-87.73166905808","(41.877903808051, -87.731669058083)"
"Vacant/Abandoned Building","18-03331065","12/11/2018","Front",,"Open",,"Vacant","false","false","4011","W","WILCOX","ST","60624","1149676.85756937","1899034.2821832","28","11","26","41.87886631442","-87.72587933915","(41.87886631442, -87.725879339155)"
"Vacant/Abandoned Building","18-03326891","12/10/2018","Front",,"Open","FRONT DOOR","Vacant","false","false","10110","S","MORGAN","ST","60643","1171433.72666969","1837778.08043174","34","22","73","41.71032223579","-87.6477861084","(41.710322235787, -87.647786108398)"
"Vacant/Abandoned Building","18-03324149","12/10/2018","Front",,"Open","FRONT","Vacant","false","false","3347","W","GLADYS","AVE","60624","1154031.68257233","1898094.70598375","28","11","27","41.87620232604","-87.70991420978","(41.876202326042, -87.709914209784)"
"Vacant/Abandoned Building","18-03326732","12/10/2018","Front",,"Open","FRONT AND REAR DOORS..","Vacant","false","true","6045","S","THROOP","ST","60636","1168693.23552786","1864680.06673076","16","7","67","41.78420443782","-87.65704795648","(41.784204437816, -87.657047956477)"
"Vacant/Abandoned Building","18-03327093","12/10/2018","Front",,"Open","FRONT","Vacant","false","false","7941","S","ESCANABA","AVE","60617","1196886.59397156","1852870.22869465","7","4","46","41.75114246663","-87.55407419711","(41.751142466632, -87.554074197111)"
"Vacant/Abandoned Building","18-03328912","12/10/2018","Front",,"Open",,"Vacant","false","false","2110","S","HALSTED","ST","60608","1171360.78528632","1890045.37990149","11","12","31","41.85375134705","-87.64652435606","(41.853751347049, -87.646524356059)"
"Vacant/Abandoned Building","18-03326968","12/10/2018",,,,,,,,"8009","S","FRANCISCO","AVE","60652","1158437.02281434","1851382.39319233","18","8","70","41.74792884058","-87.6950132056","(41.747928840583, -87.695013205603)"
"Vacant/Abandoned Building","18-03327605","12/10/2018",,,,,,,,"3026","W","LYNDALE","ST","60647","1155824.92209441","1914935.32692496","32","14","22","41.92237857953","-87.70287562373","(41.922378579533, -87.702875623734)"
"Vacant/Abandoned Building","18-03324524","12/10/2018","Rear",,"Open","REAR DOOR","Vacant","false","false","5005","W","PENSACOLA","AVE","60641","1142336.17812626","1928460.43398841","45","16","15","41.95975419399","-87.75210093166","(41.959754193993, -87.752100931662)"
"Vacant/Abandoned Building","18-03322110","12/10/2018","Front",,"Boarded",,"Vacant","false","false","1500","W","71ST","ST","60636","1167563.64988289","1857652.0138733","17","7","67","41.76494287199","-87.66139078541","(41.764942871985, -87.661390785411)"
"Vacant/Abandoned Building","18-03325427","12/10/2018","Front",,"Open","FRONT","Vacant","false","false","7222","S","SANGAMON","ST","60621","1171224.49727624","1856945.10840275","6","7","68","41.76292377511","-87.64799338213","(41.762923775106, -87.647993382127)"
"Vacant/Abandoned Building","18-03325912","12/10/2018","Front",,"Open",,"Vacant","false","false","2037","E","75TH","ST","60649","1191201.37920001","1855643.52738582","8","4","43","41.75889204285","-87.57481768186","(41.758892042853, -87.574817681862)"
"Vacant/Abandoned Building","18-03327788","12/10/2018","Rear",,"Boarded",,"Vacant","false","false","7241","S","VERNON","AVE","60619","1180500.12846621","1857103.27398026","6","3","69","41.76314997332","-87.61399197725","(41.763149973318, -87.613991977247)"
"Vacant/Abandoned Building","18-03323616","12/10/2018","Front",,"Boarded",,"Vacant","false","true","10817","S","HOXIE","AVE","60617","1195234.27022223","1833820.81143262","10","4","51","41.69891005857","-87.56075550772","(41.698910058574, -87.560755507724)"
"Vacant/Abandoned Building","18-03326500","12/10/2018","Rear",,"Open",,"Vacant","false","false","1345","S","KEELER","AVE","60623","1148599.3610772","1893407.02463292","24","10","29","41.86344531705","-87.72998097096","(41.863445317049, -87.729980970963)"
"Vacant/Abandoned Building","18-03327165","12/10/2018","Front",,"Open",,"Vacant","true","true","5817","S","CARPENTER","ST","60621","1170309.86237999","1866153.82689113","16","7","68","41.78821356147","-87.65107790895","(41.78821356147, -87.651077908948)"
"Vacant/Abandoned Building","18-03328260","12/10/2018","Front",,"Boarded","IS NOT OPEN","Vacant","false","false","10231","S","PEORIA","ST","60643","1172119.584998","1836988.9507047","34","22","73","41.70814173408","-87.64529746593","(41.708141734081, -87.645297465931)"
"Vacant/Abandoned Building","18-03326721","12/10/2018","Front",,"Open",,"Vacant","false","false","5752","W","DAKIN","ST","60634","1137297.35998439","1925669.78881154","38","16","15","41.95218868548","-87.77069353995","(41.952188685484, -87.770693539954)"
"Vacant/Abandoned Building","18-03317321","12/09/2018","Front",,"Open","FRONT DOOR","Vacant","false","false","1339","S","KEELER","AVE","60623","1148598.0610772","1893447.32463292","24","10","29","41.86355593021","-87.72998470352","(41.863555930209, -87.729984703518)"
"Vacant/Abandoned Building","18-03319053","12/09/2018","Garage",,"Open","GARAGE","Vacant","false","true","8435","S","MARSHFIELD","AVE","60620","1166810.31448714","1848772.10927174","21","6","71","41.74059129189","-87.6644050354","(41.74059129189, -87.664405035395)"
"Vacant/Abandoned Building","18-03317316","12/09/2018","Front",,"Open","REAR DOOR","Vacant","false","false","1014","S","INDEPENDENCE","BLVD","60624","1151414.6278189","1895297.19653254","24","11","29","41.86857740762","-87.71959664486","(41.868577407623, -87.719596644856)"
"Vacant/Abandoned Building","18-03316467","12/09/2018","Front",,"Open",,"Vacant","false","true","825","N","LAWNDALE","AVE","60651","1151568.61861408","1905254.00690853","27","11","23","41.89589693503","-87.71876954111","(41.895896935029, -87.718769541114)"
"Vacant/Abandoned Building","18-03317385","12/09/2018","Front",,"Open",,"Vacant","false","false","4843","S","CHAMPLAIN","AVE","60615","1181415.75498915","1873043.64652871","4","2","38","41.80687076965","-87.61014466655","(41.806870769646, -87.610144666546)"
"Vacant/Abandoned Building","18-03316675","12/09/2018","Garage",,"Open","SIDE","Vacant","false","false","4907","W","BERTEAU","AVE","60641","1142806.90553334","1927472.46963145","45","16","15","41.95703436028","-87.75039501245","(41.957034360275, -87.750395012452)"
"Vacant/Abandoned Building","18-03313950","12/08/2018","Rear",,"Open","FRONT","Vacant","false","false","324","S","MOZART","ST","60612","1157435.89852667","1898435.51481818","27","11","27","41.87706900738","-87.69740577837","(41.877069007382, -87.69740577837)"
"Vacant/Abandoned Building","18-03312378","12/08/2018","Front",,"Open","FRONT DOOR AND WINDOWS","Vacant","false","true","7755","S","HALSTED","ST","60620","1172312.08136698","1853433.19038378","17","6","71","41.7532627846","-87.64411033196","(41.7532627846, -87.644110331964)"
"Vacant/Abandoned Building","18-03313242","12/08/2018","Front",,"Boarded",,"Vacant","false","false","836","N","WASHTENAW","AVE","60622","1158238.74857442","1905591.39823078","26","12","24","41.8966890456","-87.6942622666","(41.896689045601, -87.694262266598)"
"Vacant/Abandoned Building","18-03315291","12/08/2018","Front",,"Open",,"Occupied","false","true","7318","S","LANGLEY","AVE","60619","1182160.7926209","1856645.59840002","6","3","69","41.76185579481","-87.60791954135","(41.761855794807, -87.607919541355)"
"Vacant/Abandoned Building","18-03309894","12/07/2018","Rear",,"Open","REAR","Vacant","false","false","6432","S","HOYNE","AVE","60636","1163468.39489796","1861979.00930833","16","7","67","41.77690355028","-87.67627996012","(41.776903550278, -87.67627996012)"
"Vacant/Abandoned Building","18-03310225","12/07/2018","Front",,"Open",,"Vacant","true","true","6327","S","ADA","ST","60636","1168406.63243089","1862804.0405749","16","7","67","41.77906257404","-87.65815276228","(41.779062574041, -87.658152762279)"
"Vacant/Abandoned Building","18-03305533","12/07/2018",,,,,,,,"4410","S","SHIELDS","AVE","60609","1174712.1361274","1875650.61991969","3","9","37","41.81417670903","-87.63465349132","(41.814176709026, -87.634653491319)"
"Vacant/Abandoned Building","18-03307029","12/07/2018","Front",,"Open","FRONT AND REAR","Vacant","false","true","1128","N","SPRINGFIELD","AVE","60651","1150177.84887514","1907243.72080205","37","11","23","41.90138413492","-87.72382566092","(41.901384134921, -87.723825660922)"
"Vacant/Abandoned Building","18-03307026","12/07/2018","Front",,"Open",,"Vacant","false","false","8551","S","SAGINAW","AVE","60617","1195313.0059765","1848785.26941372","7","4","46","41.73997197707","-87.55997502517","(41.739971977073, -87.559975025166)"
"Vacant/Abandoned Building","18-03308373","12/07/2018","Front",,"Open","NOT BOARDED AT ALL","Vacant","false","true","5520","W","QUINCY","ST","60644","1139751.52271478","1898457.59548097","29","15","25","41.87747080052","-87.76233784811","(41.877470800516, -87.762337848114)"
"Vacant/Abandoned Building","18-03304465","12/06/2018","Front",,"Open","FRONT AND REAR","Vacant","true","false","322","S","KOSTNER","AVE","60624","1147110.69478981","1898088.57572022","28","11","26","41.87632063897","-87.7353260862","(41.876320638968, -87.735326086201)"
"Vacant/Abandoned Building","18-03300166","12/06/2018","Front",,"Boarded","WINDOWS","Vacant","false","true","7832","S","UNION","AVE","60620","1172995.6747","1852802.3612","6","6","71","41.75151665467","-87.6416238129","(41.75151665467, -87.641623812901)"
"Vacant/Abandoned Building","18-03300859","12/06/2018","Rear",,"Open","REAR","Vacant","false","true","7915","S","EMERALD","AVE","60620","1172674.36978425","1852387.25167716","17","6","71","41.75038462345","-87.6428134475","(41.750384623452, -87.6428134475)"
"Vacant/Abandoned Building","18-03298056","12/06/2018","Front",,"Open",,"Vacant","false","false","840","N","LEAMINGTON","AVE","60651","1141869.72018778","1905108.3816142","37","15","25","41.89568243849","-87.75439553981","(41.895682438491, -87.754395539812)"
"Vacant/Abandoned Building","18-03304548","12/06/2018","Garage",,"Open",,"Vacant","false","true","108","N","WALLER","AVE","60644","1138144.03678425","1900226.1628995","29","15","25","41.88235317791","-87.7681974344","(41.882353177908, -87.768197434401)"
"Vacant/Abandoned Building","18-03300101","12/06/2018","Front",,"Open","SIDE REAR DOOR","Vacant","false","true","7815","S","EMERALD","AVE","60620","1172657.74418296","1852977.38676671","6","6","71","41.75200439578","-87.64285701657","(41.752004395778, -87.642857016572)"
"Vacant/Abandoned Building","18-03298063","12/06/2018","Front",,"Open",,"Vacant","false","false","710","N","LONG","AVE","60644","1140192.74000132","1904175.78001485","37","15","25","41.89315415291","-87.76057766069","(41.893154152915, -87.76057766069)"
"Vacant/Abandoned Building","18-03298061","12/06/2018","Front",,"Open",,"Vacant","false","false","3318","W","MONROE","ST","60624","1154294.13832037","1899342.07353039","28","11","27","41.87961999661","-87.7089172369","(41.879619996607, -87.708917236899)"
"Vacant/Abandoned Building","18-03298745","12/06/2018","Front",,"Open","GATED LOT","Vacant","false","true","5032","S","SEELEY","AVE","60609","1163541.03501436","1871289.79076981","15","9","61","41.80245200444","-87.67575259321","(41.802452004436, -87.675752593206)"
"Vacant/Abandoned Building","18-03303182","12/06/2018","Front",,"Open",,"Occupied","false","false","3435","W","71ST","ST","60629","1154694.80008678","1857319.32999667","17","8","66","41.76429611961","-87.70856805294","(41.764296119614, -87.708568052941)"
"Vacant/Abandoned Building","18-03298101","12/06/2018","Front",,"Open",,"Vacant","false","false","540","N","LEAMINGTON","AVE","60644","1141936.07131671","1903083.90912926","37","15","25","41.89012581581","-87.75420203061","(41.890125815808, -87.754202030605)"
"Vacant/Abandoned Building","18-03302045","12/06/2018","Front",,"Open","DOORS AND WINDOWS ARE WIDE OPEN...","Vacant","false","true","8702","S","MARQUETTE","AVE","60617","1195764.32002251","1847800.74998666","7","4","46","41.73725923362","-87.55835398843","(41.737259233622, -87.558353988428)"
"Vacant/Abandoned Building","18-03300111","12/06/2018","Front",,"Open","WINDOWS ALL AROUND","Vacant","false","true","7936","S","UNION","AVE","60620","1173011.14701552","1852255.73957817","17","6","71","41.75001631394","-87.64158321917","(41.750016313938, -87.64158321917)"
"Vacant/Abandoned Building","18-03300079","12/06/2018","Front",,"Open","REAR DOOR","Vacant","false","true","7936","S","LOWE","AVE","60620","1173345.16387504","1852263.97193226","17","6","71","41.75003152889","-87.64035899588","(41.750031528889, -87.640358995883)"
"Vacant/Abandoned Building","18-03302349","12/06/2018",,,,,,,,"10657","S","WENTWORTH","AVE","60628","1176838.10393122","1834200.26368926","34","5","49","41.70038442443","-87.62810168223","(41.700384424432, -87.628101682226)"
"Vacant/Abandoned Building","18-03298258","12/06/2018","Front",,"Open","FRONT AND REAR","Vacant","false","false","2137","W","ERIE","ST","60612","1162039.20931522","1904320.90842742","26","12","24","41.89312418985","-87.6803393273","(41.893124189853, -87.680339327297)"
"Vacant/Abandoned Building","18-03303568","12/06/2018","Front",,"Boarded","BACK DOOR","Vacant","false","true","4044","W","FIFTH","AVE","60624","1149527.11148078","1896784.27388998","24","11","26","41.87269494303","-87.72648759507","(41.872694943027, -87.72648759507)"
"Vacant/Abandoned Building","18-03300760","12/06/2018","Front",,"Boarded","SIDE WINDOWS HAVE LADDER STANDING ON SIDE OF HOME","Vacant","false","true","7822","S","UNION","AVE","60620","1172992.71356718","1852913.10597247","6","6","71","41.75182061772","-87.64163140138","(41.751820617718, -87.641631401377)"
"Vacant/Abandoned Building","18-03298870","12/06/2018","Front",,"Open","FRONT","Vacant","false","false","4733","W","GLADYS","AVE","60644","1144891.76680043","1897933.76393416","28","11","25","41.87593795172","-87.74347724192","(41.875937951721, -87.743477241923)"
"Vacant/Abandoned Building","18-03300056","12/06/2018","Front",,"Open","FRONT WINDOW","Vacant","false","true","7941","S","UNION","AVE","60620","1173012.14701552","1852222.13957817","17","6","71","41.74992408918","-87.64158054464","(41.749924089182, -87.641580544644)"
"Vacant/Abandoned Building","18-03290864","12/05/2018","Front",,"Open",,"Vacant","false","true","7401","S","DOBSON","AVE","60619","1184517.72740941","1855685.38181814","8","3","69","41.75916600005","-87.59931124168","(41.759166000052, -87.599311241684)"
"Vacant/Abandoned Building","18-03292011","12/05/2018",,,,,,,,"5006","S","ELIZABETH","ST","60609","1168837.90991796","1871583.08310534","20","9","61","41.80314398726","-87.65631820916","(41.803143987256, -87.656318209159)"
"Vacant/Abandoned Building","18-03293123","12/05/2018","Front",,"Open","NOT BOARDED AT ALL","Vacant","false","false","7820","S","RHODES","AVE","60619","1181258.83153328","1853277.7488044","6","6","69","41.75263488217","-87.61132889157","(41.752634882167, -87.611328891573)"
"Vacant/Abandoned Building","18-03292723","12/05/2018",,,,,,,,"4711","W","WARWICK","AVE","60641","1144322.81352989","1924513.39567564","30","17","15","41.9488859754","-87.74489671513","(41.948885975405, -87.744896715127)"
"Vacant/Abandoned Building","18-03291676","12/05/2018","Rear",,"Boarded",,"Vacant","false","false","10706","S","LANGLEY","AVE","60628","1182811.17617904","1834097.07990395","9","5","50","41.69996497559","-87.60623395797","(41.699964975587, -87.606233957968)"
"Vacant/Abandoned Building","18-03294396","12/05/2018","Front",,"Open",,"Vacant","false","false","2015","W","70TH","ST","60636","1164132.92811171","1858236.43622161","17","7","67","41.76661946325","-87.67394898376","(41.76661946325, -87.673948983761)"
"Vacant/Abandoned Building","18-03295800","12/05/2018","Rear",,"Open","REAR","Vacant","false","false","7705","S","HALSTED","ST","60620","1172302.81810543","1853767.70371441","17","6","71","41.75418093545","-87.6441344582","(41.754180935451, -87.644134458201)"
"Vacant/Abandoned Building","18-03297048","12/05/2018","Front",,"Open","FRONT AND REAR","Vacant","false","false","9438","S","JUSTINE","ST","60620","1167658.01088895","1842132.32021818","21","22","73","41.72235260441","-87.66148904529","(41.722352604414, -87.661489045294)"
"Vacant/Abandoned Building","18-03296115","12/05/2018","Front",,"Open","FRONT BASEMENT DOOR","Vacant","false","true","2622","W","24TH","ST","60608","1159264.21637218","1887975.06351873","12","10","30","41.84832710023","-87.69098008694","(41.848327100227, -87.690980086939)"
"Vacant/Abandoned Building","18-03296429","12/05/2018","Front",,"Open",,"Vacant","false","false","5632","S","HONORE","ST","60636","1164980.07456591","1867328.10777737","15","7","67","41.7915503321","-87.67058702359","(41.791550332096, -87.670587023594)"
"Vacant/Abandoned Building","18-03295761","12/05/2018","Rear",,"Open","REAR","Vacant","false","false","4055","W","MAYPOLE","AVE","60624","1149225.62859134","1901141.84689692","28","11","26","41.8846584585","-87.72748154947","(41.884658458496, -87.727481549468)"
"Vacant/Abandoned Building","18-03293677","12/05/2018","Front",,"Open",,"Vacant","false","true","5345","S","ROCKWELL","ST","60632","1159945.52832864","1869125.71159416","14","9","63","41.79658821529","-87.68899841316","(41.79658821529, -87.688998413157)"
"Vacant/Abandoned Building","18-03295933","12/05/2018","Front",,"Open","BACK AND FRONT","Vacant","false","true","528","E","92ND","PL","60619","1181631.33002088","1843766.65000696","9","6","44","41.72652675553","-87.61025670139","(41.726526755532, -87.61025670139)"
"Vacant/Abandoned Building","18-03292722","12/05/2018",,,,,,,,"4655","W","ARTHINGTON","ST","60644","1145472.59700677","1895623.58992656","24","11","25","41.86958757767","-87.74140311101","(41.869587577668, -87.741403111012)"
"Vacant/Abandoned Building","18-03296094","12/05/2018","Front",,"Open",,"Vacant","false","false","2901","S","QUINN","ST","60608","1170294.7860894","1885353.04827629","11","9","60","41.84089851491","-87.65057387002","(41.840898514907, -87.650573870016)"
"Vacant/Abandoned Building","18-03289517","12/04/2018","Front",,"Boarded",,"Vacant","true","false","7438","S","PHILLIPS","AVE","60649","1193937.99368141","1855994.80011245","7","3","43","41.75978931019","-87.56477683847","(41.75978931019, -87.564776838474)"
"Vacant/Abandoned Building","18-03287968","12/04/2018","Rear",,"Boarded",,"Vacant","false","false","6522","S","ASHLAND","AVE","60636","1166792.10617376","1861467.14362213","15","7","67","41.77542859227","-87.66410991283","(41.775428592271, -87.664109912834)"
"Vacant/Abandoned Building","18-03282545","12/04/2018","Front",,"Open","BEING USED AS A DUMPING GROUND","Vacant","false","true","7200","S","CAMPBELL","AVE","60629","1160954.59119782","1856832.65358087","18","8","66","41.76283355097","-87.68563761313","(41.762833550971, -87.685637613127)"
"Vacant/Abandoned Building","18-03287471","12/04/2018","Front",,"Open","BACK AND SIDE BASEMENT DOORS, REAR WINDOWS","Vacant","false","true","6446","S","BELL","AVE","60636","1162512.49001219","1861861.66998884","16","8","66","41.77660154381","-87.67978756281","(41.776601543805, -87.679787562807)"
"Vacant/Abandoned Building","18-03284748","12/04/2018","Front",,"Open","ALL AROUND","Vacant","true","false","4630","S","EVANS","AVE","60653","1182033.00987713","1874474.73991105","4","2","38","41.81078352888","-87.60783648985","(41.810783528879, -87.607836489846)"
"Vacant/Abandoned Building","18-03287735","12/04/2018","Garage",,"Open","GARAGE","Vacant","false","true","8951","S","UNION","AVE","60620","1173207.3733661","1845567.41457723","21","22","71","41.73165833709","-87.64106132167","(41.731658337087, -87.641061321672)"
"Vacant/Abandoned Building","18-03285936","12/04/2018","Front",,"Open",,"Vacant","true","false","1844","N","WINCHESTER","AVE","60622","1163066.08258108","1912290.36010019","32","14","22","41.91497144503","-87.67634384751","(41.914971445028, -87.676343847507)"
"Vacant/Abandoned Building","18-03285580","12/04/2018","Front",,"Open","ALL DEBRIS STILL LEFT ON SITE AND NEXT DOOR 6047 S KILDARE","Vacant","true","false","6049","S","KILDARE","AVE","60629","1148740.30038748","1864142.57521455","13","8","65","41.78313683604","-87.73021769509","(41.783136836042, -87.730217695095)"
"Vacant/Abandoned Building","18-03283448","12/04/2018","Front",,"Open",,"Vacant","false","false","11592","S","MICHIGAN","AVE","60628","1178922.60620396","1827780.23110415","9","5","53","41.68271984084","-87.62066357113","(41.682719840845, -87.620663571127)"
"Vacant/Abandoned Building","18-03288637","12/04/2018","Front",,"Open","FRONT AND REAR","Vacant","false","true","11713","S","MORGAN","ST","60643","1171763.54721546","1827147.76988625","34","5","53","41.68114378512","-87.64688850666","(41.681143785119, -87.64688850666)"
"Vacant/Abandoned Building","18-03283446","12/04/2018","Front",,"Open",,"Vacant","false","true","12709","S","UNION","AVE","60628","1173970.84200641","1820560.1737216","9","5","53","41.66301779986","-87.63900296415","(41.66301779986, -87.639002964151)"
"Vacant/Abandoned Building","18-03274210","12/03/2018","Front",,"Open","FRONT","Vacant","false","true","7642","S","DR MARTIN LUTHER KING JR","DR","60619","1180229.83310452","1854426.91448807","6","6","69","41.7558119535","-87.61506455454","(41.755811953498, -87.615064554536)"
"Vacant/Abandoned Building","18-03278660","12/03/2018","Front",,"Open","BACK DOOR AND BASEMENT DOOR","Vacant","false","true","3928","W","FILLMORE","ST","60624","1150356.90151751","1895083.57818195","24","11","29","41.8680119002","-87.7234853933","(41.8680119002, -87.723485393299)"
"Vacant/Abandoned Building","18-03277221","12/03/2018",,,,,,,,"12023","S","PRINCETON","AVE","60628","1176446.74179659","1825203.6729833","34","5","53","41.67570521071","-87.62980372345","(41.675705210708, -87.629803723446)"
"Vacant/Abandoned Building","18-03281352","12/03/2018","Front",,"Open",,"Vacant","false","true","1434","S","HARDING","AVE","60623","1150278.56003097","1892857.94768866","24","10","29","41.86190603552","-87.7238310121","(41.861906035524, -87.723831012096)"
"Vacant/Abandoned Building","18-03274619","12/03/2018","Front",,"Open",,"Vacant","false","false","6550","S","WOLCOTT","AVE","60636","1164803.0739154","1861564.42782272","15","7","67","41.77573779606","-87.67139875054","(41.775737796064, -87.671398750536)"
"Vacant/Abandoned Building","18-03275113","12/03/2018",,,,,,,,"7200","S","MORGAN","ST","60621","1170889.02437301","1857082.89110488","6","7","68","41.76330919614","-87.64921893018","(41.76330919614, -87.649218930183)"
"Vacant/Abandoned Building","18-03274148","12/03/2018","Front",,"Open",,"Vacant","false","true","4117","S","ALBANY","AVE","60632","1156365.15226863","1877087.0386849","15","9","58","41.81850805414","-87.70191359512","(41.818508054143, -87.701913595124)"
"Vacant/Abandoned Building","18-03276156","12/03/2018","Front",,"Boarded",,"Vacant","true","false","7913","S","WOODLAWN","AVE",,"1185588.44843443","1852709.46641188","8","4","45","41.75097465996","-87.59548068298","(41.75097465996, -87.595480682979)"
"Vacant/Abandoned Building","18-03275145","12/03/2018",,,,,,,,"727","E","61ST","ST","60637","1182228.22012708","1864726.96527323","20","3","42","41.78403028537","-87.60742241257","(41.78403028537, -87.607422412569)"
"Vacant/Abandoned Building","18-03278198","12/03/2018","Front",,"Boarded",,"Vacant","true","false","10749","S","EDBROOKE","AVE","60628","1179149.89965","1833678.901","9","5","49","41.69890147373","-87.6196526461","(41.698901473735, -87.619652646104)"
"Vacant/Abandoned Building","18-03276996","12/03/2018","Front",,"Open","FRONT, REAR, WINDOWS","Vacant","false","true","135","W","112TH","ST","60628","1177302.38261254","1830686.18542861","34","5","49","41.69073083895","-87.62650727213","(41.690730838951, -87.626507272129)"
"Vacant/Abandoned Building","18-03275483","12/03/2018",,,,,,,,"53","E","103RD","PL","60628","1178564.00448192","1836364.84121884","9","5","49","41.70628536931","-87.62171664243","(41.706285369307, -87.621716642434)"
"Vacant/Abandoned Building","18-03276168","12/03/2018",,,,,,,,"11336","S","STATE","ST","60628","1178277.475294","1829696.17869876","34","5","49","41.68799210433","-87.62296730052","(41.687992104332, -87.622967300522)"
"Vacant/Abandoned Building","18-03268697","12/02/2018","Rear",,"Open","REAR","Vacant","false","false","2219","S","KEDVALE","AVE","60623","1149178.70132372","1888844.0708995","22","10","29","41.8509128169","-87.72797233325","(41.850912816899, -87.727972333247)"
"Vacant/Abandoned Building","18-03268000","12/02/2018","Rear",,"Open",,"Vacant","false","false","108","W","113TH","PL","60628","1177488.42227733","1829696.18798406","34","5","49","41.68800994874","-87.62585593872","(41.688009948738, -87.625855938716)"
"Vacant/Abandoned Building","18-03268240","12/02/2018","Front",,"Open",,"Vacant","false","false","3329","W","VAN BUREN","ST","60624","1154113.71731046","1897826.72816732","28","11","27","41.87546533131","-87.70962015473","(41.875465331313, -87.709620154733)"
"Vacant/Abandoned Building","18-03267929","12/02/2018","Front",,"Open","FRONT DOOR AND BACK","Vacant","false","true","4626","W","ADAMS","ST","60644","1145531.94691983","1898722.96989436","28","11","25","41.87809153104","-87.74110670861","(41.878091531043, -87.741106708609)"
"Vacant/Abandoned Building","18-03267647","12/02/2018","Front",,"Open","FRONT AND BACK DOORS - WINDOW","Vacant","false","true","7115","S","HOMAN","AVE","60629","1154936.00008678","1857164.92999667","17","8","66","41.76386761083","-87.70768810148","(41.763867610826, -87.707688101484)"
"Vacant/Abandoned Building","18-03264706","12/01/2018","Rear",,"Boarded","NONE","Vacant","false","false","11745","S","LA SALLE","ST","60628","1177367.27671768","1827065.60019211","34","5","53","41.68079394987","-87.62637846596","(41.68079394987, -87.626378465965)"
"Vacant/Abandoned Building","18-03265035","12/01/2018","Rear",,"Open","FRONT DOOR","Vacant","false","true","7128","S","CHAMPLAIN","AVE","60619","1181797.59000814","1857896.99002696","6","3","69","41.76529813839","-87.60921209613","(41.765298138389, -87.609212096131)"
"Vacant/Abandoned Building","18-03265045","12/01/2018","Rear",,"Open","FRONT AND BACK DOOR","Vacant","false","true","7132","S","CHAMPLAIN","AVE","60619","1181798.29000814","1857870.09002696","6","3","69","41.76522430589","-87.60921036048","(41.765224305894, -87.609210360479)"
"Vacant/Abandoned Building","18-03264452","12/01/2018","Front",,"Open",,"Vacant","false","false","6832","S","LOOMIS","BLVD","60636","1168175.10039041","1859446.34549969","17","7","67","41.76985362095","-87.65909808737","(41.769853620947, -87.659098087373)"
"Vacant/Abandoned Building","18-03265699","12/01/2018","Front",,"Open","FRONT DOOR","Vacant","false","false","536","E","92ND","PL","60619","1181657.03002088","1843767.35000696","9","6","44","41.72652808397","-87.61016253901","(41.726528083972, -87.610162539011)"
"Vacant/Abandoned Building","18-03265836","12/01/2018","Front",,"Open","SECOND FLOOR WINDOWS, SEWER TOP IS MISSING (KIDS PLAYING IN THE YARD, GARAGE IS WIDE OPEN, SUN ROOM IS OPEN","Vacant","false","true","8219","S","MARQUETTE","AVE","60617","1195598.15221047","1850994.55699521","7","4","46","41.74602740326","-87.55885745915","(41.746027403263, -87.558857459149)"
"Vacant/Abandoned Building","18-03264968","12/01/2018","Front",,"Open","FRONT DOOR","Vacant","false","true","5240","S","HONORE","ST","60609","1164904.27511323","1869939.03040806","16","9","61","41.7987166274","-87.67079118021","(41.798716627396, -87.670791180206)"
"Vacant/Abandoned Building","18-03264979","12/01/2018","Front",,"Boarded","FRONT GATE","Vacant","false","false","4247","W","WEST END","AVE","60624","1148048.16707507","1900635.07787182","28","11","26","41.88329055703","-87.73181843851","(41.883290557025, -87.731818438505)"
"Vacant/Abandoned Building","18-03261358","11/30/2018","Front",,"Open","SIDE ENTRY","Vacant","false","true","2000","E","71ST","ST","60649","1190772.75172321","1858318.89512713","5","3","43","41.76624383195","-87.57630225914","(41.766243831949, -87.576302259141)"
"Vacant/Abandoned Building","18-03259389","11/30/2018",,,,,,,,"1743","W","59TH","ST","60636","1165627.7499076","1865565.6519159","15","7","67","41.78670020872","-87.66826211148","(41.786700208719, -87.668262111484)"
"Vacant/Abandoned Building","18-03260431","11/30/2018","Front",,"Boarded",,"Vacant","false","true","839","N","LONG","AVE","60651","1140159.27150233","1905188.28998414","37","15","25","41.89593321636","-87.76067576045","(41.895933216361, -87.76067576045)"
"Vacant/Abandoned Building","18-03259444","11/30/2018","Front",,"Open","WINDOWS","Vacant","false","false","2725","W","WARREN","BLVD","60612","1158203.48009569","1900241.91360414","27","12","27","41.88201029673","-87.69453806982","(41.88201029673, -87.694538069821)"
"Vacant/Abandoned Building","18-03258805","11/30/2018","Front",,"Open",,"Vacant","false","false","49","W","111TH","PL","60628","1177872.83759574","1831030.47920664","34","5","49","41.69166276733","-87.62440843541","(41.691662767333, -87.624408435411)"
"Vacant/Abandoned Building","18-03259906","11/30/2018","Front",,"Open",,"Vacant","false","true","4846","W","ST PAUL","AVE","60639","1143709.24409673","1911196.22999834","37","25","25","41.91235390794","-87.74748660006","(41.91235390794, -87.747486600062)"
"Vacant/Abandoned Building","18-03260660","11/30/2018","Rear",,"Open",,"Vacant","false","false","28","E","118TH","ST","60628","1178532.11777913","1826734.18099439","9","5","53","41.67985817831","-87.62212459884","(41.679858178306, -87.622124598842)"
"Vacant/Abandoned Building","18-03260459","11/30/2018","Rear",,"Boarded","BACK DOOR","Vacant","true","true","9105","S","WENTWORTH","AVE","60620","1176547.08002401","1844580.41761428","21","6","49","41.72887552732","-87.62885631147","(41.728875527323, -87.628856311471)"
"Vacant/Abandoned Building","18-03261357","11/30/2018","Front",,"Open","BACKDOOR","Vacant","false","true","6216","S","ELIZABETH","ST","60636","1169041.85422263","1863556.35099033","16","7","67","41.78111329521","-87.65580224979","(41.781113295212, -87.655802249794)"
"Vacant/Abandoned Building","18-03260278","11/30/2018","Front",,"Open","ALL WINDOWS","Vacant","false","false","2439","W","24TH","ST","60608","1160505.22111062","1888006.21591","25","10","31","41.84838702269","-87.68642465525","(41.84838702269, -87.686424655254)"
"Vacant/Abandoned Building","18-03254271","11/29/2018","Front",,"Boarded",,"Vacant","false","false","2937","W","40TH","ST","60632","1157428.39512846","1877976.46056891","12","9","58","41.82092723323","-87.69798909937","(41.820927233234, -87.697989099372)"
"Vacant/Abandoned Building","18-03253593","11/29/2018","Front",,"Open","BACK DOOR","Vacant","false","false","6910","S","KIMBARK","AVE","60637","1185923.57993439","1859529.54198557","5","3","69","41.76968169796","-87.59403782839","(41.769681697962, -87.594037828395)"
"Vacant/Abandoned Building","18-03252320","11/29/2018","Front",,"Open",,"Vacant","false","false","6036","S","LOOMIS","BLVD","60636","1168029.63870917","1864722.82728925","16","7","67","41.78433607485","-87.65947973029","(41.784336074847, -87.65947973029)"
"Vacant/Abandoned Building","18-03255574","11/29/2018","Rear",,"Boarded",,"Vacant","false","true","4652","W","WEST END","AVE","60644","1145696.32472998","1900580.48101186","28","11","25","41.88318564733","-87.74045602867","(41.883185647332, -87.740456028671)"
"Vacant/Abandoned Building","18-03253971","11/29/2018","Front",,"Open","BACK DOOR AND WINDOWS","Vacant","true","true","333","W","107TH","PL","60628","1176035.58989945","1833640.58428484","34","5","49","41.69886657792","-87.63105687767","(41.698866577921, -87.631056877669)"
"Vacant/Abandoned Building","18-03254229","11/29/2018","Front",,"Boarded",,"Vacant","false","false","1419","S","TRIPP","AVE","60623","1148280.63752337","1892908.10857236","24","10","29","41.8620823711","-87.73116383899","(41.862082371097, -87.731163838989)"
"Vacant/Abandoned Building","18-03251778","11/29/2018","Front",,"Open",,"Vacant","false","false","7414","S","MAY","ST","60621","1169935.59907905","1855653.62708214","17","7","68","41.75940786639","-87.65275486211","(41.759407866388, -87.652754862111)"
"Vacant/Abandoned Building","18-03254225","11/29/2018","Front",,"Boarded",,"Vacant","false","false","2918","N","HAMLIN","AVE","60618","1150549.4763801","1919211.27750146","30","25","21","41.93421695068","-87.72214734976","(41.93421695068, -87.722147349756)"
"Vacant/Abandoned Building","18-03252790","11/29/2018","Front",,"Open","FRONT AND BACK","Vacant",,"true","8748","S","DORCHESTER","AVE",,"1186981.92999189","1847251.58787417","8","4","48","41.73596478819","-87.59054698944","(41.73596478819, -87.590546989438)"
"Vacant/Abandoned Building","18-03251785","11/29/2018","Front",,"Open",,"Vacant","false","false","7410","S","MAY","ST","60621","1169935.09907905","1855675.12708214","17","7","68","41.75946687603","-87.6527560712","(41.759466876031, -87.652756071204)"
"Vacant/Abandoned Building","18-03252464","11/29/2018","Front",,"Open",,"Vacant","true","false","5437","W","GEORGE","ST","60641","1139504.0899126","1918743.90110415","31","25","19","41.9331433205","-87.76275091476","(41.933143320502, -87.762750914757)"
"Vacant/Abandoned Building","18-03251170","11/29/2018","Front",,"Open",,"Vacant","false","false","6519","S","LAFLIN","ST","60636","1167457.0367146","1861505.0320933","16","7","67","41.77551833805","-87.6616712662","(41.775518338055, -87.661671266204)"
"Vacant/Abandoned Building","18-03250535","11/29/2018","Rear",,"Open",,"Vacant","false","false","5533","S","WOLCOTT","AVE","60636","1164633.9800125","1867887.64801911","15","7","67","41.79309309463","-87.67184030121","(41.793093094627, -87.671840301208)"
"Vacant/Abandoned Building","18-03254255","11/29/2018","Front",,"Boarded",,"Vacant","false","false","4412","S","SHIELDS","AVE","60609","1174712.7361274","1875630.01991969","3","9","37","41.81412016732","-87.63465190484","(41.814120167323, -87.634651904836)"
"Vacant/Abandoned Building","18-03254254","11/29/2018","Front",,"Boarded",,"Vacant","false","false","7530","S","MAY","ST","60620","1169957.49997993","1854818.22000273","17","6","71","41.75711492509","-87.65269882006","(41.757114925095, -87.652698820064)"
"Vacant/Abandoned Building","18-03245646","11/28/2018","Front",,"Open",,"Vacant","false","false","2609","W","LITHUANIAN PLAZA","CT","60629","1160134.22259406","1858800.64567635","17","8","66","41.76825092132","-87.68859035398","(41.768250921325, -87.68859035398)"
"Vacant/Abandoned Building","18-03246780","11/28/2018",,,,,,,,"6215","N","CALIFORNIA","AVE","60659","1156543.04102927","1941132.02651973","50","24","2","41.99424938402","-87.69952509994","(41.994249384017, -87.699525099941)"
"Vacant/Abandoned Building","18-03248849","11/28/2018","Front",,"Open",,"Vacant","false","false","4642","W","MONROE","ST","60644","1145419.11277684","1899159.89010655","28","11","25","41.87929262823","-87.74150995123","(41.879292628227, -87.741509951233)"
"Vacant/Abandoned Building","18-03249164","11/28/2018","Front",,"Open","FRONT AND REAR","Vacant","false","false","6549","S","JUSTINE","ST","60636","1167132.91787888","1861294.9018298","16","7","67","41.77494865418","-87.6628654573","(41.774948654177, -87.662865457298)"
"Vacant/Abandoned Building","18-03247861","11/28/2018","Front",,"Boarded","FRONT, AND SIDE DOOR","Vacant","false","true","10111","S","EBERHART","AVE","60628","1181360.86050284","1838031.61057416","9","5","49","41.71079532137","-87.61142360497","(41.710795321367, -87.611423604965)"
"Vacant/Abandoned Building","18-03245332","11/28/2018","Front",,"Boarded",,"Vacant","true","false","7943","S","JUSTINE","ST","60620","1167386.494725","1852001.455225","21","6","71","41.74944076605","-87.66220168176","(41.749440766046, -87.662201681755)"
"Vacant/Abandoned Building","18-03242005","11/28/2018","Front",,"Boarded",,"Vacant","false","false","7028","S","MERRILL","AVE","60649","1191764.04851931","1858672.53561629","5","3","43","41.76719025","-87.57265740003","(41.76719025, -87.572657400025)"
"Vacant/Abandoned Building","18-03248911","11/28/2018","Front",,"Boarded","FRONT AND BACK DOOR","Vacant","false","true","8616","S","EMERALD","AVE","60620","1172710.79929982","1847792.04096866","21","6","71","41.73777395958","-87.64281507805","(41.737773959582, -87.642815078046)"
"Vacant/Abandoned Building","18-03242112","11/28/2018","Front",,"Open","WINDOWS","Vacant","false","true","8699","S","BURNHAM","AVE","60617","1196328.06652937","1847828.13570784","10","4","46","41.7373204333","-87.55628772243","(41.737320433295, -87.556287722434)"
"Vacant/Abandoned Building","18-03246779","11/28/2018",,,,,,,,"6228","N","LIVERMORE","AVE","60646","1138331.18013099","1940763.7501116","39","16","12","41.99358913952","-87.76652603085","(41.993589139517, -87.76652603085)"
"Vacant/Abandoned Building","18-03244797","11/28/2018","Front",,"Open",,"Vacant","false","true","1858","S","HARDING","AVE","60623","1150350.78937297","1890654.26081537","24","10","29","41.85585744622","-87.72362331316","(41.855857446224, -87.723623313156)"
"Vacant/Abandoned Building","18-03238509","11/27/2018","Front",,"Open","FRONT","Vacant","false","true","6828","S","WINCHESTER","AVE","60636","1164534.3098849","1859383.62791917","17","7","67","41.76975906073","-87.67244545102","(41.769759060726, -87.672445451025)"
"Vacant/Abandoned Building","18-03235628","11/27/2018","Front",,"Open",,"Occupied","false","true","303","E","136TH","ST","60827","1180639.74997922","1815114.3167222","9","5","54","41.64792349085","-87.61476439095","(41.647923490853, -87.614764390947)"
"Vacant/Abandoned Building","18-03233720","11/27/2018","Front",,"Open","SIDE","Vacant","false","true","11844","S","UNION","AVE","60628","1173779.60008909","1826335.5157735","34","5","53","41.67887051429","-87.63953265229","(41.678870514291, -87.639532652291)"
"Vacant/Abandoned Building","18-03235268","11/27/2018","Front",,"Open",,"Vacant","false","false","10637","S","SPRINGFIELD","AVE","60655","1152230.44120965","1833781.49307303","19","22","74","41.69975286455","-87.7182172069","(41.699752864551, -87.718217206895)"
"Vacant/Abandoned Building","18-03235107","11/27/2018","Rear",,"Open",,"Vacant","true","true","6156","S","FRANCISCO","AVE","60629","1158103.11710384","1863684.17079318","16","8","66","41.78169356696","-87.69590269928","(41.781693566964, -87.695902699281)"
"Vacant/Abandoned Building","18-03233272","11/27/2018","Front",,"Open","OPENALL AROUND PEOPLE GETTING IN AND OUT","Vacant","false","true","7639","S","COLFAX","AVE","60649","1194849.13998864","1854811.51141599","7","4","43","41.75651989105","-87.56147647149","(41.75651989105, -87.561476471486)"
"Vacant/Abandoned Building","18-03237755","11/27/2018","Rear",,"Open","FRONT ENTRANCE","Vacant","false","true","821","N","LAWNDALE","AVE","60651","1151569.41861408","1905227.20690853","27","11","23","41.89582337742","-87.71876730793","(41.895823377422, -87.718767307929)"
"Vacant/Abandoned Building","18-03236057","11/27/2018","Front",,"Open",,"Vacant","false","false","3947","N","NEWLAND","AVE","60634","1129358.65502485","1925462.76002267","38","16","17","41.95175988084","-87.79988165655","(41.951759880844, -87.799881656546)"
"Vacant/Abandoned Building","18-03233086","11/27/2018",,,,,,,,"7822","S","EMERALD","AVE","60620","1172653.24418296","1853146.78676671","17","6","71","41.75246935007","-87.64286852518","(41.752469350069, -87.642868525176)"
"Vacant/Abandoned Building","18-03237040","11/27/2018",,,,,,,,"11629","S","LAFAYETTE","AVE","60628","1178004.72720311","1827598.26598568","34","5","53","41.68224128779","-87.62402903595","(41.682241287794, -87.624029035946)"
"Vacant/Abandoned Building","18-03224375","11/26/2018","Front",,"Open","FRONT","Vacant","false","false","1727","W","106TH","ST","60643","1166700.07480231","1834374.12669507","19","22","72","41.70108334529","-87.66521834003","(41.701083345294, -87.665218340031)"
"Vacant/Abandoned Building","18-03225888","11/26/2018","Front",,"Open",,"Vacant","false","false","2052","W","108TH","PL","60643","1164545.89128469","1832865.62299478","19","22","75","41.69698934272","-87.67314858996","(41.696989342721, -87.673148589962)"
"Vacant/Abandoned Building","18-03230464","11/26/2018","Front",,"Boarded",,"Vacant","true","false","7242","S","FAIRFIELD","AVE","60629","1159293.99442014","1856502.94919606","18","8","66","41.76196294342","-87.69173303378","(41.761962943419, -87.691733033785)"
"Vacant/Abandoned Building","18-03229799","11/26/2018","Front",,"Open","PROPERTY NOT BOARDED, FRONT AND BACK DOOR.","Occupied","false","true","9120","S","JUSTINE","ST","60620","1167604.8876018","1844249.36001974","21","22","73","41.72816321903","-87.66162312046","(41.728163219029, -87.661623120464)"
"Vacant/Abandoned Building","18-03224345","11/26/2018","Front",,"Open",,"Vacant","false","false","3148","W","IRVING PARK","RD","60618","1154587.81181916","1926422.88767347","33","17","16","41.9539261625","-87.70711283255","(41.953926162499, -87.70711283255)"
"Vacant/Abandoned Building","18-03224140","11/26/2018","Front",,"Open","FRONT","Vacant","false","false","10435","S","VERNON","AVE","60628","1181090.13590546","1835867.18717898","9","5","49","41.70486208474","-87.6124814","(41.704862084741, -87.612481400001)"
"Vacant/Abandoned Building","18-03229707","11/26/2018","Front",,"Boarded",,"Vacant","true","false","2713","W","DIVISION","ST","60622","1158091.89579942","1907869.99561723","26","12","24","41.90294471228","-87.69473933787","(41.902944712281, -87.694739337873)"
"Vacant/Abandoned Building","18-03227451","11/26/2018","Front",,"Open","ALL AROUND","Vacant","false","false","6755","S","ABERDEEN","ST","60621","1170146.79706724","1860010.01486982","16","7","68","41.77135775723","-87.65185433239","(41.771357757228, -87.651854332387)"
"Vacant/Abandoned Building","18-03225829","11/26/2018",,,,,,,,"6613","S","GREEN","ST","60621","1171775.61018875","1860998.43402516","6","7","68","41.77403452592","-87.64585471677","(41.774034525924, -87.645854716773)"
"Vacant/Abandoned Building","18-03222368","11/25/2018","Front",,"Open",,"Vacant","false","true","7029","S","VERNON","AVE","60637","1180462.62128852","1858511.40807858","6","3","69","41.76701490081","-87.61408629094","(41.767014900806, -87.614086290941)"
"Vacant/Abandoned Building","18-03221432","11/25/2018","Front",,"Open",,"Vacant","false","true","5616","S","HOMAN","AVE","60629","1154669.38576686","1867171.03628425","14","8","63","41.7913311994","-87.70839879276","(41.791331199397, -87.708398792757)"
"Vacant/Abandoned Building","18-03222348","11/25/2018","Front",,"Open",,"Vacant","false","true","7033","S","VERNON","AVE","60637","1180463.22128852","1858484.70807858","6","3","69","41.76694161948","-87.61408491009","(41.766941619477, -87.614084910088)"
"Vacant/Abandoned Building","18-03220429","11/25/2018","Front",,"Open","FRONT DOOR","Vacant","false","false","1529","S","ST LOUIS","AVE","60623","1153285.53186646","1892292.16541902","24","10","29","41.86029435458","-87.71280784078","(41.860294354576, -87.71280784078)"
"Vacant/Abandoned Building","18-03220819","11/25/2018","Front",,"Open","FRONT DOOR","Vacant","false","false","8020","S","LOOMIS","BLVD","60620","1168391.59309494","1851571.42691413","21","6","71","41.74823913642","-87.65853094919","(41.74823913642, -87.658530949192)"
"Vacant/Abandoned Building","18-03218539","11/25/2018","Front",,"Open","FRONT AND REAR DOORS WITH BROKEN WINDOWS","Vacant","false","false","6609","S","SEELEY","AVE","60636","1163833.44726565","1860818.43089918","16","7","67","41.77371110529","-87.67497425571","(41.773711105294, -87.674974255705)"
"Vacant/Abandoned Building","18-03220130","11/25/2018","Rear",,"Open","REAR","Vacant","false","true","8128","S","MAY","ST","60620","1170066.35251246","1850899.57749826","21","6","71","41.74635928436","-87.65241355002","(41.746359284363, -87.652413550025)"
"Vacant/Abandoned Building","18-03219302","11/25/2018","Rear",,"Open","BACK BASEMENT DOOR IS OPEN","Vacant","false","false","5621","S","CARPENTER","ST","60621","1170272.96136819","1867538.21418304","16","7","68","41.7920132816","-87.65117293473","(41.792013281597, -87.651172934732)"
"Vacant/Abandoned Building","18-03215884","11/24/2018","Front",,"Open","FRONT DOOR OPEN AT 402 S KOSTNER UPSTAIRS","Vacant","true","true","402","S","KOSTNER","AVE","60624","1147125.41793427","1897653.10592874","28","11","26","41.87512537691","-87.73528316807","(41.875125376911, -87.735283168071)"
"Vacant/Abandoned Building","18-03215992","11/24/2018","Rear",,"Open","SIDE","Vacant","false","false","10100","S","AVENUE M",,"60617","1201488.24682431","1838631.21373128","10","4","52","41.711953983","-87.53769418953","(41.711953982999, -87.537694189535)"
"Vacant/Abandoned Building","18-03216380","11/24/2018","Front",,"Open","FRONT WINDOW BROKEN OUT","Vacant","false","false","10000","S","HOYNE","AVE","60643","1164127.42651096","1838314.56152896","19","22","72","41.71195093871","-87.67452814812","(41.711950938711, -87.674528148124)"
"Vacant/Abandoned Building","18-03216795","11/24/2018","Garage",,"Open","GARAGE DOOR OPEN","Vacant","false","true","2527","S","TROY","ST","60623","1155765.12091113","1887047.80952161","12","10","30","41.84585371211","-87.70384697748","(41.845853712111, -87.703846977482)"
"Vacant/Abandoned Building","18-03215675","11/24/2018","Front",,"Open","REAR DOOR","Vacant","false","true","7500","S","KENWOOD","AVE","60619","1186510.45260634","1855537.66531135","5","4","43","41.75871376136","-87.59201274867","(41.758713761358, -87.592012748674)"
"Vacant/Abandoned Building","18-03213133","11/23/2018","Front",,"Open","FRONT DOOR","Vacant","false","false","10431","S","VERNON","AVE","60628","1181089.33590546","1835894.08717898","9","5","49","41.70493592027","-87.61248350493","(41.704935920273, -87.612483504935)"
"Vacant/Abandoned Building","18-03209007","11/23/2018","Front",,"Open","FRONT","Vacant","true","false","2943","W","63RD","ST","60629","1157743.57138933","1862721.59822735","17","8","66","41.77905943551","-87.69724699652","(41.77905943551, -87.697246996524)"
"Vacant/Abandoned Building","18-03213266","11/23/2018","Front",,"Boarded","REAR","Vacant","false","false","149","W","74TH","ST","60621","1176534.24269161","1855918.4943945","6","7","69","41.75998889214","-87.62856316539","(41.759988892139, -87.628563165387)"
"Vacant/Abandoned Building","18-03211506","11/23/2018",,,,,,,,"1559","S","HOMAN","AVE","60623","1153955.14187218","1892105.07429514","24","10","29","41.85976764874","-87.7103548412","(41.85976764874, -87.710354841195)"
"Vacant/Abandoned Building","18-03213387","11/23/2018","Front",,"Boarded",,"Vacant","false","false","7821","S","YATES","BLVD","60649","1193554.55161471","1853575.68322331","7","4","43","41.75316045524","-87.56626117566","(41.753160455244, -87.566261175655)"
"Vacant/Abandoned Building","18-03212775","11/23/2018","Front",,"Open","FRONT, SIDE REAR","Vacant","true","false","10145","S","STATE","ST","60628","1178046.78452566","1837611.58007802","9","5","49","41.70971830513","-87.62357303481","(41.709718305132, -87.623573034808)"
"Vacant/Abandoned Building","18-03211447","11/23/2018","Front",,"Open",,"Vacant","false","false","2258","W","62ND","ST","60636","1162224.00001918","1863484.87001639","16","8","66","41.78106183699","-87.6808000038","(41.781061836987, -87.680800003804)"
"Vacant/Abandoned Building","18-03212891","11/23/2018","Front",,"Boarded","REAR BASEMENT DOOR","Vacant","false","true","7246","S","HERMITAGE","AVE","60636","1165935.51216638","1856641.83460375","17","7","67","41.76220554973","-87.66738705573","(41.76220554973, -87.667387055726)"
"Vacant/Abandoned Building","18-03210356","11/23/2018","Front",,"Open","FRONT","Vacant","false","true","3651","W","OHIO","ST","60624","1151850.81726807","1903753.01813123","27","11","23","41.89177251936","-87.71777262984","(41.891772519358, -87.717772629843)"
"Vacant/Abandoned Building","18-03211372","11/23/2018","Rear",,"Open",,"Vacant","false","false","7203","S","PAULINA","ST","60636","1166258.31718585","1856936.57607462","17","7","67","41.76300749648","-87.66619555203","(41.763007496476, -87.666195552034)"
"Vacant/Abandoned Building","18-03211894","11/23/2018","Front",,"Open","FRONT DOOR AND FRONT GATE","Vacant","false","true","2545","S","HOMAN","AVE","60623","1154106.8136216","1886884.23610044","12","10","30","41.84543804068","-87.70993722355","(41.845438040677, -87.709937223547)"
"Vacant/Abandoned Building","18-03210735","11/23/2018","Garage",,"Open","FRONT/REAR DOORS, GARAGE","Vacant","false","true","8541","S","MARSHFIELD","AVE","60620","1166829.28738985","1848069.6009908","21","6","71","41.73866310207","-87.66435552888","(41.738663102072, -87.664355528883)"
"Vacant/Abandoned Building","18-03207607","11/22/2018","Rear",,"Open","SIDE DOOR","Vacant","false","true","1615","N","SPRINGFIELD","AVE","60647","1150134.24036924","1910452.5052831","26","25","23","41.91019020403","-87.72390210468","(41.910190204033, -87.723902104676)"
"Vacant/Abandoned Building","18-03206844","11/22/2018","Front",,"Open",,"Vacant","false","false","5359","S","HONORE","ST","60609","1164926.9703079","1869150.77972342","16","9","61","41.79655309171","-87.67073023383","(41.796553091713, -87.670730233826)"
"Vacant/Abandoned Building","18-03198854","11/21/2018","Front",,"Open",,"Vacant","false","false","5136","S","HERMITAGE","AVE","60609","1165548.42570062","1870638.90177003","16","9","61","41.80062350936","-87.66840908366","(41.800623509357, -87.668409083662)"
"Vacant/Abandoned Building","18-03198866","11/21/2018","Front",,"Open",,"Vacant","false","false","5341","S","WOOD","ST","60609","1165255.01888866","1869272.97238217","16","9","61","41.79688145809","-87.66952378714","(41.796881458094, -87.669523787139)"
"Vacant/Abandoned Building","18-03201775","11/21/2018","Front",,"Open","387 E. 69TH STREET FRONT ENTRY WITH BROKEN WINDOWS AND OPEN DOORS","Vacant","false","false","387","E","69TH","ST","60637","1180013.67760927","1859352.43059068","6","3","69","41.76933304387","-87.61570611703","(41.769333043874, -87.615706117026)"
"Vacant/Abandoned Building","18-03199482","11/21/2018","Front",,"Open",,"Vacant","false","false","7338","W","COYLE","AVE","60631","1126526.15252578","1945607.83901724","41","16","9","42.00708797023","-87.80984156696","(42.007087970226, -87.809841566962)"
"Vacant/Abandoned Building","18-03199824","11/21/2018","Rear",,"Open","REAR","Vacant","false","false","4411","W","WEST END","AVE","60624","1146914.4111114","1900609.10897495","28","11","26","41.88324102652","-87.73598236743","(41.88324102652, -87.735982367427)"
"Vacant/Abandoned Building","18-03198856","11/21/2018","Rear",,"Open",,"Vacant","false","false","5139","S","HERMITAGE","AVE","60609","1165548.92570062","1870618.80177003","16","9","61","41.80056834196","-87.66840782022","(41.800568341956, -87.668407820217)"
"Vacant/Abandoned Building","18-03201380","11/21/2018","Front",,"Open","FRONT","Vacant","false","false","9546","S","NORMAL","AVE","60628","1174646.82289299","1841488.79009798","21","22","73","41.72043414601","-87.63590912582","(41.720434146008, -87.635909125817)"
"Vacant/Abandoned Building","18-03200212","11/21/2018","Front",,"Open","OPEN","Vacant","false","true","10520","S","AVENUE N",,"60617","1201181.58198982","1835805.369188","10","4","52","41.70420739893","-87.53891272504","(41.70420739893, -87.538912725041)"
"Vacant/Abandoned Building","18-03198855","11/21/2018","Garage",,"Open",,"Vacant","false","false","5239","S","SANGAMON","ST","60609","1170866.91007381","1870075.51612206","20","9","61","41.79896296447","-87.64892095583","(41.798962964473, -87.648920955834)"
"Vacant/Abandoned Building","18-03198848","11/21/2018","Front",,"Open",,"Vacant","false","false","5144","S","HERMITAGE","AVE","60609","1165549.82570062","1870585.30177003","16","9","61","41.80047639487","-87.66840546999","(41.800476394871, -87.668405469991)"
"Vacant/Abandoned Building","18-03203631","11/21/2018","Front",,"Open","FRONT AND REAR","Vacant","true","true","647","N","CHRISTIANA","AVE","60624","1153927.88996702","1904115.48892862","27","11","23","41.89272603138","-87.71013476584","(41.89272603138, -87.710134765844)"
"Vacant/Abandoned Building","18-03202865","11/21/2018","Front",,"Open","FRONT DOORS","Vacant","false","false","749","N","LATROBE","AVE","60644","1141222.13801156","1904471.01877659","37","15","25","41.89394540497","-87.75678972519","(41.893945404969, -87.756789725187)"
"Vacant/Abandoned Building","18-03193079","11/20/2018","Front",,"Open",,"Vacant","false","false","8158","S","SOUTH SHORE","DR","60617","1198568.22417116","1851476.49837944","7","4","46","41.74727601304","-87.54795862327","(41.747276013037, -87.54795862327)"
"Vacant/Abandoned Building","18-03192008","11/20/2018",,,,,,,,"6558","S","MORGAN","ST","60621","1170772.67516799","1861333.07102312","6","7","68","41.77497475197","-87.64952152151","(41.774974751975, -87.649521521508)"
"Vacant/Abandoned Building","18-03196089","11/20/2018","Rear",,"Open",,"Vacant","false","false","8729","S","COLFAX","AVE","60617","1195005.200015","1847598.89990621","7","4","46","41.73672406443","-87.56114176281","(41.736724064431, -87.56114176281)"
"Vacant/Abandoned Building","18-03192400","11/20/2018","Front",,"Boarded",,"Vacant","false","false","3101","S","DR MARTIN LUTHER KING JR","DR","60616","1179417.32872916","1884525.33567289","4","2","35","41.83842333785","-87.61712315155","(41.838423337846, -87.617123151547)"
"Vacant/Abandoned Building","18-03194030","11/20/2018","Front",,"Open","FRONT DOOR AND SIDE DOOR","Vacant","false","false","11236","S","HOMEWOOD","AVE","60643","1165405.4131994","1829951.86132969","19","22","75","41.68897535952","-87.67008365073","(41.688975359518, -87.670083650728)"
"Vacant/Abandoned Building","18-03195064","11/20/2018","Front",,"Open","FRONT","Vacant","false","false","3141","N","MENARD","AVE","60634","1137162.19728208","1920295.01711766","30","25","19","41.93744219502","-87.77131995554","(41.937442195018, -87.771319955536)"
"Vacant/Abandoned Building","18-03197992","11/20/2018","Front",,"Open","FRONT AND REAR WITH BROKEN WINDOWS","Occupied","true","false","4202","S","VINCENNES","AVE","60653","1180390.91963319","1877246.53076978","3","2","38","41.81842742813","-87.61377432507","(41.818427428128, -87.613774325071)"
"Vacant/Abandoned Building","18-03195230","11/20/2018","Front",,"Open","FRONT DOOR","Vacant","false","false","9936","S","ABERDEEN","ST","60643","1170736.02966946","1838833.38312228","34","22","73","41.71323336044","-87.65031054288","(41.713233360445, -87.650310542883)"
"Vacant/Abandoned Building","18-03197756","11/20/2018","Front",,"Open","FRONT","Vacant","false","false","7247","S","DAMEN","AVE","60636","1164278.43532247","1856597.28050763","17","7","67","41.76211833","-87.67346173319","(41.762118330002, -87.673461733191)"
"Vacant/Abandoned Building","18-03192172","11/20/2018",,,,,,,,"8756","S","MARQUETTE","AVE","60617","1195774.91787749","1847437.8477854","7","4","46","41.73626313799","-87.55832713456","(41.736263137986, -87.55832713456)"
"Vacant/Abandoned Building","18-03196706","11/20/2018","Front",,"Boarded",,"Vacant","false","false","8756","S","MARQUETTE","AVE","60617","1195774.91787749","1847437.8477854","7","4","46","41.73626313799","-87.55832713456","(41.736263137986, -87.55832713456)"
"Vacant/Abandoned Building","18-03194094","11/20/2018","Front",,"Open",,"Vacant","false","true","4626","W","ADAMS","ST","60644","1145531.94691983","1898722.96989436","28","11","25","41.87809153104","-87.74110670861","(41.878091531043, -87.741106708609)"
"Vacant/Abandoned Building","18-03191561","11/20/2018","Front",,"Open","FRONT","Vacant","false","true","5729","S","PAULINA","ST","60636","1165989.46158657","1866679.34971276","16","7","67","41.78974864792","-87.6669042313","(41.78974864792, -87.666904231302)"
"Vacant/Abandoned Building","18-03187287","11/19/2018","Front",,"Open",,"Vacant","true","false","444","E","63RD","ST","60637","1180392.51796934","1863339.20301294","20","3","42","41.78026446274","-87.61419527451","(41.780264462738, -87.614195274511)"
"Vacant/Abandoned Building","18-03182513","11/19/2018","Front",,"Open","BASEMENT WINDOW FRONT","Vacant","false","true","8454","S","HALSTED","ST","60620","1172448.03078517","1848793.34220956","21","6","71","41.74052744613","-87.64374839628","(41.740527446132, -87.643748396281)"
"Vacant/Abandoned Building","18-03182664","11/19/2018","Front",,"Open","FRONT DOOR OPEN","Vacant","false","true","8106","S","KINGSTON","AVE","60617","1194588.64351769","1851716.55158812","7","4","46","41.74803348864","-87.56253273675","(41.748033488636, -87.562532736746)"
"Vacant/Abandoned Building","18-03181891","11/19/2018","Front",,"Open","FRONT AND REAR","Vacant","false","false","10245","S","STATE","ST","60628","1178062.4266116","1836939.22993441","9","5","49","41.70787293045","-87.6235360475","(41.707872930455, -87.623536047505)"
"Vacant/Abandoned Building","18-03183631","11/19/2018",,,,,,,,"7914","S","MOZART","ST","60652","1158753.30997516","1851988.10997569","18","8","70","41.74958457821","-87.69383772314","(41.749584578215, -87.693837723139)"
"Vacant/Abandoned Building","18-03185038","11/19/2018","Rear",,"Open","REAR DOOR","Vacant","false","true","822","S","KARLOV","AVE","60624","1149179.47238568","1896022.18090437","24","11","26","41.8706104085","-87.72778368681","(41.870610408498, -87.727783686806)"
"Vacant/Abandoned Building","18-03190037","11/19/2018","Front",,"Open","FRONT DOOR","Vacant","false","true","6719","S","MARSHFIELD","AVE","60636","1166494.39751037","1860152.09200743","16","7","67","41.77182627197","-87.66523873074","(41.771826271974, -87.665238730738)"
"Vacant/Abandoned Building","18-03181889","11/19/2018","Front",,"Open","FRONT AND REAR","Vacant","false","false","10239","S","STATE","ST","60628","1178061.8266116","1836967.92993441","9","5","49","41.70795170077","-87.6235373784","(41.707951700768, -87.623537378403)"
"Vacant/Abandoned Building","18-03189159","11/19/2018","Front",,"Open",,"Vacant","true","false","8350","S","GREEN","ST","60620","1172077.54001621","1849815.00371582","21","6","71","41.74333916063","-87.64507589552","(41.743339160625, -87.645075895524)"
"Vacant/Abandoned Building","18-03188150","11/19/2018","Rear",,"Open",,"Vacant","false","true","8538","S","CHAPPEL","AVE","60617","1191332.09206792","1848764.02558151","8","4","45","41.74001092595","-87.57456097807","(41.740010925954, -87.574560978074)"
"Vacant/Abandoned Building","18-03184109","11/19/2018","Front",,"Open",,"Vacant","false","true","4040","W","ROSCOE","ST","60641","1148922.0457765","1922458.249904","30","17","16","41.9431585973","-87.7280439262","(41.943158597304, -87.728043926197)"
"Vacant/Abandoned Building","18-03189218","11/19/2018","Front",,"Open","FRONT","Vacant","false","true","1113","S","MOZART","ST","60612","1157524.69999065","1895160.92001058","28","11","29","41.86808138609","-87.69716883466","(41.868081386087, -87.697168834658)"
"Vacant/Abandoned Building","18-03188668","11/19/2018","Rear",,"Open","REAR","Vacant","false","false","8536","S","CHAPPEL","AVE","60617","1191331.79206792","1848777.42558151","8","4","45","41.74004770404","-87.57456164434","(41.740047704043, -87.574561644339)"
"Vacant/Abandoned Building","18-03184860","11/19/2018","Front",,"Open","WINDOWS ARE BUSTED OUT","Vacant","false","true","8549","S","KINGSTON","AVE","60617","1194649.41691331","1848781.27800096","7","4","46","41.73997736271","-87.56240640783","(41.739977362713, -87.56240640783)"
"Vacant/Abandoned Building","18-03190024","11/19/2018","Front",,"Open","FRONT DOOR","Vacant","false","true","6717","S","MARSHFIELD","AVE","60636","1166493.89751037","1860165.49200743","16","7","67","41.77186305398","-87.66524018201","(41.771863053985, -87.665240182009)"
"Vacant/Abandoned Building","18-03186547","11/19/2018","Rear",,"Open","WINDOW","Vacant","false","true","8544","S","SEELEY","AVE","60620","1164177.52559392","1848006.97400844","18","6","71","41.73854739891","-87.67407282349","(41.738547398914, -87.674072823486)"
"Vacant/Abandoned Building","18-03184359","11/19/2018","Rear",,"Boarded",,"Vacant","false","false","2130","S","CHRISTIANA","AVE","60623","1154359.98000496","1889516.08002432","24","10","30","41.85265508294","-87.70893789636","(41.85265508294, -87.708937896359)"
"Vacant/Abandoned Building","18-03187134","11/19/2018","Front",,"Open","FRONT","Vacant","true","false","8216","S","KEDZIE","AVE","60652","1156476.71063201","1849946.94551848","18","8","70","41.74402942014","-87.70223505786","(41.744029420138, -87.702235057863)"
"Vacant/Abandoned Building","18-03188032","11/19/2018","Front",,"Boarded",,"Vacant","false","false","26","E","101ST","PL","60628","1178302.38452566","1837683.08007802","9","5","49","41.70990872564","-87.62263483494","(41.709908725642, -87.62263483494)"
"Vacant/Abandoned Building","18-03190346","11/19/2018","Rear",,"Boarded","REAR","Vacant","false","false","6430","S","RHODES","AVE","60637","1181007.24273002","1862496.44607061","20","3","42","41.77793772704","-87.61196753453","(41.777937727037, -87.611967534533)"
"Vacant/Abandoned Building","18-03186833","11/19/2018","Front",,"Open",,"Vacant","false","false","11312","S","ABERDEEN","ST","60643","1171016.87391538","1829719.81712664","34","22","75","41.68821819637","-87.64954699367","(41.688218196369, -87.649546993669)"
"Vacant/Abandoned Building","18-03187894","11/19/2018","Front",,"Open","FRONT DOORS.. UNLASHED DOOR..","Vacant","false","true","7818","S","EAST END","AVE","60649","1188893.68307245","1853477.16921235","8","4","43","41.75300288661","-87.58334433326","(41.753002886607, -87.583344333258)"
"Vacant/Abandoned Building","18-03181549","11/18/2018","Front",,"Boarded","WINDOW SECOND FLOOR","Vacant","true","false","1644","N","KEELER","AVE","60639","1148136.85039178","1910598.78261318","26","25","23","41.9106303126","-87.73123601896","(41.910630312598, -87.731236018959)"
"Vacant/Abandoned Building","18-03180838","11/18/2018","Front",,"Open","BACK DOOR","Vacant","false","false","12137","S","WALLACE","ST","60628","1174499.00721529","1824407.25672199","34","5","53","41.67356313513","-87.63695638811","(41.673563135126, -87.636956388112)"
"Vacant/Abandoned Building","18-03179432","11/18/2018","Rear",,"Open","REAR","Vacant","false","true","922","W","54TH","PL","60609","1171085.1307058","1868684.7448271","20","9","61","41.79514176576","-87.64816134528","(41.795141765758, -87.648161345277)"
"Vacant/Abandoned Building","18-03176436","11/17/2018","Front",,"Open","FRONT","Vacant","false","false","2550","W","THOMAS","ST","60622","1159538.39371214","1907236.28740258","1","12","24","41.90117609429","-87.68944353993","(41.901176094287, -87.689443539926)"
"Vacant/Abandoned Building","18-03176304","11/17/2018","Front",,"Open","WINDOWS","Vacant","false","true","10804","S","UNION","AVE","60628","1173562.58487178","1833221.49630515","34","22","49","41.69777151551","-87.64012418378","(41.697771515512, -87.640124183782)"
"Vacant/Abandoned Building","18-03176192","11/17/2018","Front",,"Open","FRONT","Vacant","false","false","11921","S","NORMAL","AVE","60628","1175111.97788418","1825849.52800502","34","5","53","41.67750734184","-87.63467006206","(41.67750734184, -87.634670062062)"
"Vacant/Abandoned Building","18-03171845","11/16/2018","Front",,"Open",,"Vacant","false","true","5834","N","LINCOLN","AVE","60659","1155734.21997818","1938675.66007741","40","20","2","41.98752538987","-87.70256685743","(41.987525389875, -87.702566857435)"
"Vacant/Abandoned Building","18-03174412","11/16/2018","Front",,"Open","FRONT AND BACK DOOR","Vacant","false","true","9420","S","ADA","ST","60620","1168982.92001435","1842287.10168888","21","22","73","41.72274887133","-87.65663162168","(41.722748871328, -87.656631621681)"
"Vacant/Abandoned Building","18-03172146","11/16/2018",,,,,,,,"6730","S","PAXTON","AVE","60649","1192034.04020631","1860773.65531829","5","3","43","41.77294932472","-87.57159957787","(41.772949324724, -87.571599577868)"
"Vacant/Abandoned Building","18-03169297","11/16/2018","Front",,"Open",,"Vacant","true","false","7339","S","UNIVERSITY","AVE","60619","1185152.26578358","1856578.84960145","5","3","69","41.7616028806","-87.59695768352","(41.761602880599, -87.596957683516)"
"Vacant/Abandoned Building","18-03168462","11/16/2018",,,,,,,,"3121","W","53RD","ST","60632","1156378.4399114","1869320.07388967","14","9","63","41.79719419776","-87.70207412523","(41.797194197764, -87.702074125235)"
"Vacant/Abandoned Building","18-03170151","11/16/2018","Front",,"Open",,"Vacant","true","false","5006","S","ELIZABETH","ST","60609","1168837.90991796","1871583.08310534","20","9","61","41.80314398726","-87.65631820916","(41.803143987256, -87.656318209159)"
"Vacant/Abandoned Building","18-03172960","11/16/2018","Rear",,"Open",,"Vacant","false","false","1510","W","FRY","ST","60642","1166157.95022634","1905758.64151789","1","12","24","41.89698242097","-87.66517164988","(41.896982420972, -87.665171649881)"
"Vacant/Abandoned Building","18-03168244","11/16/2018","Front",,"Open","OPEN AND DANGEROUS","Vacant","true","false","6558","S","MORGAN","ST","60621","1170772.67516799","1861333.07102312","6","7","68","41.77497475197","-87.64952152151","(41.774974751975, -87.649521521508)"
"Vacant/Abandoned Building","18-03168900","11/16/2018","Rear",,"Open","REAR OF BUILDING","Vacant","false","false","1518","S","CHRISTIANA","AVE","60623","1154279.47979942","1892390.71219347","24","10","29","41.86054500707","-87.70915665955","(41.860545007066, -87.709156659552)"
"Vacant/Abandoned Building","18-03170266","11/16/2018","Rear",,"Open",,"Vacant","false","true","2221","S","LAWNDALE","AVE","60623","1152054.31473228","1888914.49192782","22","10","30","41.85104994761","-87.7174162946","(41.851049947612, -87.717416294595)"
"Vacant/Abandoned Building","18-03174513","11/16/2018","Front",,"Open",,"Vacant","true","false","7339","S","UNIVERSITY","AVE","60619","1185152.26578358","1856578.84960145","5","3","69","41.7616028806","-87.59695768352","(41.761602880599, -87.596957683516)"
"Vacant/Abandoned Building","18-03164748","11/15/2018","Front",,"Open",,"Vacant","false","false","2822","S","THROOP","ST","60608","1169426.76577119","1886126.11802346","11","9","60","41.84303877908","-87.65373672436","(41.843038779075, -87.653736724363)"
"Vacant/Abandoned Building","18-03165341","11/15/2018","Front",,"Boarded","SIDE OF THE HOUSE","Vacant","false","true","8738","S","WABASH","AVE","60619","1178238.12038827","1847072.70017397","9","6","44","41.7356765167","-87.6225862804","(41.735676516697, -87.622586280395)"
"Vacant/Abandoned Building","18-03162744","11/15/2018",,,,,,,,"9749","S","AVENUE N",,"60617","1201140.03643425","1841054.07590416","10","4","52","41.71861133426","-87.53888752555","(41.718611334262, -87.538887525553)"
"Vacant/Abandoned Building","18-03163073","11/15/2018","Front",,"Open","WINDOW","Vacant","false","true","6913","S","GREEN","ST","60621","1171828.23880447","1859011.34971189","6","7","68","41.7685805736","-87.64572002878","(41.768580573599, -87.645720028777)"
"Vacant/Abandoned Building","18-03166272","11/15/2018","Rear",,"Open","FRONT AND BACK OF THE PROPERTY","Vacant","false","true","4130","W","78TH","PL","60652","1150195.28001674","1852093.52558965","18","8","70","41.75004412336","-87.72519553188","(41.750044123364, -87.725195531875)"
"Vacant/Abandoned Building","18-03164551","11/15/2018","Front",,"Open",,"Vacant","false","false","1825","W","115TH","ST","60643","1166301.74913187","1828408.36189398","34","22","75","41.6847207461","-87.66684589893","(41.684720746098, -87.666845898933)"
"Vacant/Abandoned Building","18-03165159","11/15/2018",,,,,,,,"7018","S","VERNON","AVE","60637","1180460.62128852","1858584.90807858","6","3","69","41.76721663829","-87.61409136888","(41.767216638294, -87.614091368884)"
"Vacant/Abandoned Building","18-03164779","11/15/2018","Front",,"Open",,"Vacant","false","false","2847","S","ARCHER","AVE","60608","1168853.93111382","1885985.68821899","11","9","60","41.84266584596","-87.65584294417","(41.84266584596, -87.65584294417)"
"Vacant/Abandoned Building","18-03166696","11/15/2018","Front",,"Boarded",,"Vacant","false","false","5831","W","NEWPORT","AVE","60634","1136884.9134786","1922345.49968907","36","16","15","41.94307391854","-87.77228971554","(41.94307391854, -87.772289715537)"
"Vacant/Abandoned Building","18-03166430","11/15/2018","Front",,"Open","FRONT DOOR","Vacant","false","true","37","E","101ST","PL","60628","1178415.58452566","1837686.28007802","9","5","49","41.70991494227","-87.62222018462","(41.709914942273, -87.622220184619)"
"Vacant/Abandoned Building","18-03163257","11/15/2018","Front",,"Open",,"Vacant","false","true","6907","S","SANGAMON","ST","60621","1171168.50273259","1859033.40727819","6","7","68","41.76865555023","-87.64813763948","(41.768655550231, -87.648137639481)"
"Vacant/Abandoned Building","18-03155547","11/14/2018","Front",,"Open",,"Vacant","false","false","5647","N","KEYSTONE","AVE","60646","1148376.5310255","1937165.42588437","39","17","13","41.98352672034","-87.72966814299","(41.983526720337, -87.729668142991)"
"Vacant/Abandoned Building","18-03156415","11/14/2018","Front",,"Open",,"Vacant","false","false","9849","S","CHARLES","ST","60643","1167525.25869474","1839540.03441253","19","22","72","41.7152418139","-87.66204933494","(41.715241813904, -87.662049334942)"
"Vacant/Abandoned Building","18-03153294","11/14/2018",,,,,,,,"7634","S","ADA","ST","60620","1168769.77997013","1853926.38998531","17","6","71","41.754693328","-87.65707731817","(41.754693327995, -87.657077318169)"
"Vacant/Abandoned Building","18-03158242","11/14/2018","Front",,"Open",,"Vacant","false","true","5908","W","63RD","ST","60638","1138078.03473151","1862162.99431449","13","8","64","41.77790308422","-87.76935737931","(41.777903084224, -87.769357379308)"
"Vacant/Abandoned Building","18-03154820","11/14/2018","Front",,"Open",,"Vacant","false","false","12201","S","HARVARD","AVE","60628","1176154.65096729","1824015.92997371","34","5","53","41.67245239582","-87.63090827326","(41.672452395816, -87.630908273258)"
"Vacant/Abandoned Building","18-03159421","11/14/2018","Front",,"Open","REAR","Vacant","false","false","6300","S","COTTAGE GROVE","AVE","60637","1182646.41712533","1863411.23581547","20","3","42","41.78041010526","-87.60592997007","(41.780410105256, -87.605929970071)"
"Vacant/Abandoned Building","18-03156337","11/14/2018","Rear",,"Boarded",,"Vacant","false","false","2038","E","73RD","ST","60649","1191176.03020124","1856969.4462061","5","3","43","41.7625310863","-87.57486773755","(41.7625310863, -87.574867737547)"
"Vacant/Abandoned Building","18-03154492","11/14/2018","Front",,"Open",,"Vacant","false","false","12456","S","EGGLESTON","AVE","60628","1175556.4652159","1822311.42757174","34","5","53","41.66778832655","-87.63314833252","(41.667788326547, -87.633148332521)"
"Vacant/Abandoned Building","18-03154235","11/14/2018","Front",,"Open",,"Vacant","false","false","6222","S","WOOD","ST","60636","1165415.08537639","1863420.74038502","15","7","67","41.78081881009","-87.66910260632","(41.780818810089, -87.669102606316)"
"Vacant/Abandoned Building","18-03158016","11/14/2018","Front",,"Open","FRONT WINDOW","Vacant","false","false","7114","S","WINCHESTER","AVE","60636","1164585.52397455","1857490.46016883","17","7","67","41.76456286909","-87.67231105384","(41.76456286909, -87.672311053842)"
"Vacant/Abandoned Building","18-03157302","11/14/2018","Front",,"Open","FRONT WINDOWS ARE BUSTED OUT. AND DOORS ARE UNLOCKED..","Vacant","false","true","8532","S","WABASH","AVE","60619","1178199.16436635","1848444.30761965","6","6","44","41.73944125849","-87.6226875059","(41.739441258487, -87.622687505897)"
"Vacant/Abandoned Building","18-03152799","11/14/2018","Front",,"Open",,"Vacant","false","true","7326","S","ALBANY","AVE","60629","1156974.61407882","1855881.05186828","18","8","66","41.76030351843","-87.70025068282","(41.760303518434, -87.700250682825)"
"Vacant/Abandoned Building","18-03154418","11/14/2018","Front",,"Open","FRONT","Vacant","false","false","12452","S","EGGLESTON","AVE","60628","1175555.4652159","1822338.12757174","34","5","53","41.66786161797","-87.63315119836","(41.667861617974, -87.633151198365)"
"Vacant/Abandoned Building","18-03157439","11/14/2018","Front",,"Open","FRONT AND REAR","Vacant","false","false","8656","S","BURNHAM","AVE","60617","1196321.36652937","1848115.53570784","10","4","46","41.73810924823","-87.556302762","(41.738109248233, -87.556302762)"
"Vacant/Abandoned Building","18-03155450","11/14/2018","Front",,"Open",,"Vacant","false","true","1214","W","109TH","ST","60643","1170171.88608925","1832503.25988722","34","22","75","41.69587477788","-87.652559898","(41.695874777883, -87.652559897998)"
"Vacant/Abandoned Building","18-03156898","11/14/2018","Front",,"Open",,"Vacant","false","false","405","E","88TH","PL","60619","1180496.55927892","1846394.87562853","9","6","44","41.73376500739","-87.61433302574","(41.733765007388, -87.614333025736)"
"Vacant/Abandoned Building","18-03156246","11/14/2018","Front",,"Boarded",,"Vacant","false","false","11841","S","UNION","AVE","60628","1173779.00008909","1826356.0157735","34","5","53","41.67892678284","-87.63953424429","(41.678926782843, -87.639534244288)"
"Vacant/Abandoned Building","18-03154908","11/14/2018","Front",,"Open","FRONT","Vacant","false","false","12236","S","YALE","AVE","60628","1176818.37891323","1823795.05291482","34","5","53","41.67183140181","-87.62848563122","(41.671831401811, -87.628485631223)"
"Vacant/Abandoned Building","18-03155508","11/14/2018",,,,,,,,"7917","S","EUCLID","AVE","60617","1190576.03801954","1852863.72801772","8","4","46","41.75127914126","-87.57719902162","(41.751279141264, -87.577199021615)"
"Vacant/Abandoned Building","18-03157482","11/14/2018","Garage",,"Open",,"Vacant","false","false","9218","S","GREEN","ST","60620","1172266.01348204","1843677.82299633","21","22","73","41.7264937592","-87.64456527707","(41.726493759196, -87.644565277075)"
"Vacant/Abandoned Building","18-03153130","11/14/2018","Rear",,"Boarded","FRONT","Vacant","false","false","11132","S","STATE","ST","60628","1178236.53759574","1831039.07920664","34","5","49","41.69167814533","-87.62307663387","(41.691678145327, -87.623076633874)"
"Vacant/Abandoned Building","18-03155079","11/14/2018","Front",,"Open","FRONT","Vacant","false","false","12322","S","PARNELL","AVE","60628","1174867.34738723","1823183.31082579","34","5","53","41.67019625308","-87.63564450219","(41.670196253082, -87.635644502187)"
"Vacant/Abandoned Building","18-03152866","11/14/2018","Rear",,"Open",,"Vacant","false","true","4952","W","OHIO","ST","60644","1143236.12548575","1903537.55398722","37","15","25","41.89134649369","-87.74941624191","(41.891346493688, -87.749416241908)"
"Vacant/Abandoned Building","18-03148368","11/13/2018",,,"Boarded",,"Vacant",,,"5428","S","BISHOP","ST","60609","1167589.20033174","1868747.65707505","20","9","61","41.79539015052","-87.66097914836","(41.795390150519, -87.660979148363)"
"Vacant/Abandoned Building","18-03148178","11/13/2018","Rear",,"Open","REAR","Vacant","false","false","5424","S","DEARBORN","ST","60609","1176897.96416667","1869029.64540766","3","2","40","41.79595909356","-87.62683534978","(41.795959093557, -87.626835349776)"
"Vacant/Abandoned Building","18-03149347","11/13/2018","Front",,"Open","FRONT","Vacant","false","false","12418","S","PARNELL","AVE","60628","1174889.3806835","1822549.28350531","34","5","53","41.66845588926","-87.63558265095","(41.668455889261, -87.635582650947)"
"Vacant/Abandoned Building","18-03146557","11/13/2018","Front",,"Open",,"Vacant","false","false","6127","N","MONTICELLO","AVE","60659","1150936.52659424","1940436.11126731","50","17","13","41.99245177001","-87.72016675243","(41.992451770009, -87.720166752433)"
"Vacant/Abandoned Building","18-03150543","11/13/2018","Front",,"Open","FRONT","Vacant","false","false","12453","S","EGGLESTON","AVE","60628","1175555.7652159","1822331.42757174","34","5","53","41.6678432254","-87.63315029966","(41.667843225399, -87.633150299659)"
"Vacant/Abandoned Building","18-03150582","11/13/2018","Front",,"Open",,"Vacant","false","false","12214","S","HARVARD","AVE","60628","1176157.35096729","1823928.72997371","34","5","53","41.67221304478","-87.63090099281","(41.672213044776, -87.630900992809)"
"Vacant/Abandoned Building","18-03144169","11/13/2018","Front",,"Open",,"Vacant","false","false","5050","S","PRAIRIE","AVE","60615","1178887.45372835","1871930.43482125","3","2","38","41.80387402346","-87.61945149283","(41.803874023456, -87.619451492835)"
"Vacant/Abandoned Building","18-03149174","11/13/2018","Front",,"Boarded","FRONT","Vacant","false","false","12405","S","PARNELL","AVE","60628","1174886.2806835","1822636.18350531","34","5","53","41.66869442593","-87.63559142132","(41.668694425929, -87.635591421323)"
"Vacant/Abandoned Building","18-03150617","11/13/2018","Front",,"Open","FRONT","Vacant","false","false","12447","S","STEWART","AVE","60628","1175882.84002052","1822378.59017509","34","5","53","41.66796534864","-87.63195188067","(41.667965348643, -87.631951880665)"
"Vacant/Abandoned Building","18-03145627","11/13/2018","Front",,"Open","FRONT","Vacant","false","false","7337","S","GREEN","ST","60621","1171907.02522811","1856199.77630105","6","7","68","41.76086354162","-87.64551364746","(41.760863541618, -87.645513647458)"
"Vacant/Abandoned Building","18-03150160","11/13/2018","Front",,"Open",,"Vacant","false","false","12435","S","PARNELL","AVE","60628","1174893.4806835","1822435.68350531","34","5","53","41.6681440612","-87.63557101202","(41.668144061199, -87.635571012021)"
"Vacant/Abandoned Building","18-03146943","11/13/2018","Front",,"Open",,"Vacant","false","true","3518","W","POLK","ST","60624","1153050.27379292","1896144.28170879","24","11","27","41.87086965552","-87.71356933578","(41.870869655524, -87.713569335782)"
"Vacant/Abandoned Building","18-03145762","11/13/2018",,,,,,,,"2653","W","LITHUANIAN PLAZA","CT","60629","1159794.03503277","1858790.45432188","17","8","66","41.76822994577","-87.68983759122","(41.768229945769, -87.689837591221)"
